# ------------------------------------------------------------------------- #
#  Copyright 1999-2020 Esri Inc.                                            #
#                                                                           #
#  Licensed under the Apache License, Version 2.0 (the "License");          #
#  you may not use this file except in compliance with the License.         #
#  You may obtain a copy of the License at                                  #
#                                                                           #
#      http://www.apache.org/licenses/LICENSE-2.0                           #
#                                                                           #
#  Unless required by applicable law or agreed to in writing, software      #
#  distributed under the License is distributed on an "AS IS" BASIS,        #
#  WITHOUT WARRANTIES OR CONDITIONS OF ANY KIND, either express or implied. #
#  See the License for the specific language governing permissions and      #
#  limitations under the License.                                           #
# ------------------------------------------------------------------------- #

Geographic Coordinate Systems:

WKID        : 3819
Latest-WKID : 3819
Macro       : PE_GCS_HD1909
Name        : GCS_HD1909
WKT         : GEOGCS["GCS_HD1909",
               DATUM["D_Hungarian_Datum_1909",
                SPHEROID["Bessel_1841", 6377397.155, 299.1528128]],
               PRIMEM["Greenwich", 0.0],
               UNIT["Degree", 0.0174532925199433]]
Description : Hungarian Datum 1909
Authority   : EPSG
Version     : 6.17.1(10.1.0)
Deprecated  : no
Area-name   : Hungary
Area-slat   : 45.74
Area-nlat   : 48.58
Area-llon   : 16.11
Area-rlon   : 22.9

WKID        : 3821
Latest-WKID : 3821
Macro       : PE_GCS_TWD_1967
Name        : GCS_TWD_1967
WKT         : GEOGCS["GCS_TWD_1967",
               DATUM["D_TWD_1967",
                SPHEROID["GRS_1967_Truncated", 6378160.0, 298.25]],
               PRIMEM["Greenwich", 0.0],
               UNIT["Degree", 0.0174532925199433]]
Description : Taiwan 1967
Authority   : EPSG
Version     : 6.18(10.1.0)
Deprecated  : no
Area-name   : Taiwan - onshore - mainland and Penghu
Area-slat   : 21.87
Area-nlat   : 25.34
Area-llon   : 119.25
Area-rlon   : 122.06

WKID        : 3824
Latest-WKID : 3824
Macro       : PE_GCS_TWD_1997
Name        : GCS_TWD_1997
WKT         : GEOGCS["GCS_TWD_1997",
               DATUM["D_TWD_1997",
                SPHEROID["GRS_1980", 6378137.0, 298.257222101]],
               PRIMEM["Greenwich", 0.0],
               UNIT["Degree", 0.0174532925199433]]
Description : Taiwan 1997
Authority   : EPSG
Version     : 6.18(10.1.0)
Deprecated  : no
Area-name   : Taiwan
Area-slat   : 17.36
Area-nlat   : 26.96
Area-llon   : 114.32
Area-rlon   : 123.61

WKID        : 3889
Latest-WKID : 3889
Macro       : PE_GCS_IGRS
Name        : GCS_IGRS
WKT         : GEOGCS["GCS_IGRS",
               DATUM["D_Iraqi_Geospatial_Reference_System",
                SPHEROID["GRS_1980", 6378137.0, 298.257222101]],
               PRIMEM["Greenwich", 0.0],
               UNIT["Degree", 0.0174532925199433]]
Description : Iraqi Geospatial Reference System
Authority   : EPSG
Version     : 6.18.3(10.1.0)
Deprecated  : no
Area-name   : Iraq
Area-slat   : 29.06
Area-nlat   : 37.39
Area-llon   : 38.79
Area-rlon   : 48.75

WKID        : 3906
Latest-WKID : 3906
Macro       : PE_GCS_MGI_1901
Name        : GCS_MGI_1901
WKT         : GEOGCS["GCS_MGI_1901",
               DATUM["D_MGI_1901",
                SPHEROID["Bessel_1841", 6377397.155, 299.1528128]],
               PRIMEM["Greenwich", 0.0],
               UNIT["Degree", 0.0174532925199433]]
Description : MGI 1901
Authority   : EPSG
Version     : 9.5(10.1.0)
Deprecated  : no
Area-name   : Europe - former Yugoslavia onshore
Area-slat   : 40.85
Area-nlat   : 46.88
Area-llon   : 13.38
Area-rlon   : 23.04

WKID        : 4001
Latest-WKID : 4001
Macro       : PE_GCS_AIRY_1830
Name        : GCS_Airy_1830
WKT         : GEOGCS["GCS_Airy_1830",
               DATUM["D_Airy_1830",
                SPHEROID["Airy_1830", 6377563.396, 299.3249646]],
               PRIMEM["Greenwich", 0.0],
               UNIT["Degree", 0.0174532925199433]]
Description : Airy 1830
Authority   : EPSG
Version     : 6.5(3.0.1)
Deprecated  : no
Area-name   : Not specified
Area-slat   : -90.0
Area-nlat   : 90.0
Area-llon   : -180.0
Area-rlon   : 180.0

WKID        : 4002
Latest-WKID : 4002
Macro       : PE_GCS_AIRY_MOD
Name        : GCS_Airy_Modified
WKT         : GEOGCS["GCS_Airy_Modified",
               DATUM["D_Airy_Modified",
                SPHEROID["Airy_Modified", 6377340.189, 299.3249646]],
               PRIMEM["Greenwich", 0.0],
               UNIT["Degree", 0.0174532925199433]]
Description : Airy modified
Authority   : EPSG
Version     : 6.5(3.0.1)
Deprecated  : no
Area-name   : Not specified
Area-slat   : -90.0
Area-nlat   : 90.0
Area-llon   : -180.0
Area-rlon   : 180.0

WKID        : 4003
Latest-WKID : 4003
Macro       : PE_GCS_AUSTRALIAN
Name        : GCS_Australian
WKT         : GEOGCS["GCS_Australian",
               DATUM["D_Australian",
                SPHEROID["Australian", 6378160.0, 298.25]],
               PRIMEM["Greenwich", 0.0],
               UNIT["Degree", 0.0174532925199433]]
Description : Australian National
Authority   : EPSG
Version     : 6.5(3.0.1)
Deprecated  : no
Area-name   : Not specified
Area-slat   : -90.0
Area-nlat   : 90.0
Area-llon   : -180.0
Area-rlon   : 180.0

WKID        : 4004
Latest-WKID : 4004
Macro       : PE_GCS_BESSEL_1841
Name        : GCS_Bessel_1841
WKT         : GEOGCS["GCS_Bessel_1841",
               DATUM["D_Bessel_1841",
                SPHEROID["Bessel_1841", 6377397.155, 299.1528128]],
               PRIMEM["Greenwich", 0.0],
               UNIT["Degree", 0.0174532925199433]]
Description : Bessel 1841
Authority   : EPSG
Version     : 6.5(3.0.1)
Deprecated  : no
Area-name   : Not specified
Area-slat   : -90.0
Area-nlat   : 90.0
Area-llon   : -180.0
Area-rlon   : 180.0

WKID        : 4005
Latest-WKID : 4005
Macro       : PE_GCS_BESSEL_MOD
Name        : GCS_Bessel_Modified
WKT         : GEOGCS["GCS_Bessel_Modified",
               DATUM["D_Bessel_Modified",
                SPHEROID["Bessel_Modified", 6377492.018, 299.1528128]],
               PRIMEM["Greenwich", 0.0],
               UNIT["Degree", 0.0174532925199433]]
Description : Bessel modified
Authority   : EPSG
Version     : 6.5(3.0.1)
Deprecated  : no
Area-name   : Not specified
Area-slat   : -90.0
Area-nlat   : 90.0
Area-llon   : -180.0
Area-rlon   : 180.0

WKID        : 4006
Latest-WKID : 4006
Macro       : PE_GCS_BESSEL_NAMIBIA
Name        : GCS_Bessel_Namibia
WKT         : GEOGCS["GCS_Bessel_Namibia",
               DATUM["D_Bessel_Namibia",
                SPHEROID["Bessel_Namibia", 6377483.865280418, 299.1528128]],
               PRIMEM["Greenwich", 0.0],
               UNIT["Degree", 0.0174532925199433]]
Description : Bessel Namibia
Authority   : EPSG
Version     : 6.5(3.0.1)
Deprecated  : no
Area-name   : Not specified
Area-slat   : -90.0
Area-nlat   : 90.0
Area-llon   : -180.0
Area-rlon   : 180.0

WKID        : 4007
Latest-WKID : 4007
Macro       : PE_GCS_CLARKE_1858
Name        : GCS_Clarke_1858
WKT         : GEOGCS["GCS_Clarke_1858",
               DATUM["D_Clarke_1858",
                SPHEROID["Clarke_1858", 6378293.645208759, 294.260676369]],
               PRIMEM["Greenwich", 0.0],
               UNIT["Degree", 0.0174532925199433]]
Description : Clarke 1858
Authority   : EPSG
Version     : 6.5(3.0.1)
Deprecated  : no
Area-name   : Not specified
Area-slat   : -90.0
Area-nlat   : 90.0
Area-llon   : -180.0
Area-rlon   : 180.0

WKID        : 4008
Latest-WKID : 4008
Macro       : PE_GCS_CLARKE_1866
Name        : GCS_Clarke_1866
WKT         : GEOGCS["GCS_Clarke_1866",
               DATUM["D_Clarke_1866",
                SPHEROID["Clarke_1866", 6378206.4, 294.9786982]],
               PRIMEM["Greenwich", 0.0],
               UNIT["Degree", 0.0174532925199433]]
Description : Clarke 1866
Authority   : EPSG
Version     : 6.5(3.0.1)
Deprecated  : no
Area-name   : Not specified
Area-slat   : -90.0
Area-nlat   : 90.0
Area-llon   : -180.0
Area-rlon   : 180.0

WKID        : 4009
Latest-WKID : 4009
Macro       : PE_GCS_CLARKE_1866_MICH
Name        : GCS_Clarke_1866_Michigan
WKT         : GEOGCS["GCS_Clarke_1866_Michigan",
               DATUM["D_Clarke_1866_Michigan",
                SPHEROID["Clarke_1866_Michigan", 6378450.047, 294.978684677]],
               PRIMEM["Greenwich", 0.0],
               UNIT["Degree", 0.0174532925199433]]
Description : Clarke 1866 Michigan
Authority   : EPSG
Version     : 6.5(3.0.1)
Deprecated  : no
Area-name   : Not specified
Area-slat   : -90.0
Area-nlat   : 90.0
Area-llon   : -180.0
Area-rlon   : 180.0

WKID        : 4010
Latest-WKID : 4010
Macro       : PE_GCS_CLARKE_1880_BENOIT
Name        : GCS_Clarke_1880_Benoit
WKT         : GEOGCS["GCS_Clarke_1880_Benoit",
               DATUM["D_Clarke_1880_Benoit",
                SPHEROID["Clarke_1880_Benoit", 6378300.789, 293.4663155389802]],
               PRIMEM["Greenwich", 0.0],
               UNIT["Degree", 0.0174532925199433]]
Description : Clarke 1880 (Benoit)
Authority   : EPSG
Version     : 6.5(3.0.1)
Deprecated  : no
Area-name   : Not specified
Area-slat   : -90.0
Area-nlat   : 90.0
Area-llon   : -180.0
Area-rlon   : 180.0

WKID        : 4011
Latest-WKID : 4011
Macro       : PE_GCS_CLARKE_1880_IGN
Name        : GCS_Clarke_1880_IGN
WKT         : GEOGCS["GCS_Clarke_1880_IGN",
               DATUM["D_Clarke_1880_IGN",
                SPHEROID["Clarke_1880_IGN", 6378249.2, 293.4660212936265]],
               PRIMEM["Greenwich", 0.0],
               UNIT["Degree", 0.0174532925199433]]
Description : Clarke 1880 (IGN)
Authority   : EPSG
Version     : 6.5(3.0.1)
Deprecated  : no
Area-name   : Not specified
Area-slat   : -90.0
Area-nlat   : 90.0
Area-llon   : -180.0
Area-rlon   : 180.0

WKID        : 4012
Latest-WKID : 4012
Macro       : PE_GCS_CLARKE_1880_RGS
Name        : GCS_Clarke_1880_RGS
WKT         : GEOGCS["GCS_Clarke_1880_RGS",
               DATUM["D_Clarke_1880_RGS",
                SPHEROID["Clarke_1880_RGS", 6378249.145, 293.465]],
               PRIMEM["Greenwich", 0.0],
               UNIT["Degree", 0.0174532925199433]]
Description : Clarke 1880 (RGS)
Authority   : EPSG
Version     : 6.5(3.0.1)
Deprecated  : no
Area-name   : Not specified
Area-slat   : -90.0
Area-nlat   : 90.0
Area-llon   : -180.0
Area-rlon   : 180.0

WKID        : 4013
Latest-WKID : 4013
Macro       : PE_GCS_CLARKE_1880_ARC
Name        : GCS_Clarke_1880_Arc
WKT         : GEOGCS["GCS_Clarke_1880_Arc",
               DATUM["D_Clarke_1880_Arc",
                SPHEROID["Clarke_1880_Arc", 6378249.145, 293.466307656]],
               PRIMEM["Greenwich", 0.0],
               UNIT["Degree", 0.0174532925199433]]
Description : Clarke 1880 (Arc)
Authority   : EPSG
Version     : 6.5(3.0.1)
Deprecated  : no
Area-name   : Not specified
Area-slat   : -90.0
Area-nlat   : 90.0
Area-llon   : -180.0
Area-rlon   : 180.0

WKID        : 4014
Latest-WKID : 4014
Macro       : PE_GCS_CLARKE_1880_SGA
Name        : GCS_Clarke_1880_SGA
WKT         : GEOGCS["GCS_Clarke_1880_SGA",
               DATUM["D_Clarke_1880_SGA",
                SPHEROID["Clarke_1880_SGA", 6378249.2, 293.46598]],
               PRIMEM["Greenwich", 0.0],
               UNIT["Degree", 0.0174532925199433]]
Description : Clarke 1880 (SGA)
Authority   : EPSG
Version     : 6.5(3.0.1)
Deprecated  : no
Area-name   : Not specified
Area-slat   : -90.0
Area-nlat   : 90.0
Area-llon   : -180.0
Area-rlon   : 180.0

WKID        : 4015
Latest-WKID : 4015
Macro       : PE_GCS_EVEREST_ADJ_1937
Name        : GCS_Everest_Adj_1937
WKT         : GEOGCS["GCS_Everest_Adj_1937",
               DATUM["D_Everest_Adj_1937",
                SPHEROID["Everest_Adjustment_1937", 6377276.345, 300.8017]],
               PRIMEM["Greenwich", 0.0],
               UNIT["Degree", 0.0174532925199433]]
Description : Everest (adjustment 1937)
Authority   : EPSG
Version     : 6.5(9.3.0.0)
Deprecated  : no
Area-name   : Not specified
Area-slat   : -90.0
Area-nlat   : 90.0
Area-llon   : -180.0
Area-rlon   : 180.0

WKID        : 4016
Latest-WKID : 4016
Macro       : PE_GCS_EVEREST_DEF_1967
Name        : GCS_Everest_def_1967
WKT         : GEOGCS["GCS_Everest_def_1967",
               DATUM["D_Everest_Def_1967",
                SPHEROID["Everest_Definition_1967", 6377298.556, 300.8017]],
               PRIMEM["Greenwich", 0.0],
               UNIT["Degree", 0.0174532925199433]]
Description : Everest (definition 1967)
Authority   : EPSG
Version     : 6.5(3.0.1)
Deprecated  : no
Area-name   : Not specified
Area-slat   : -90.0
Area-nlat   : 90.0
Area-llon   : -180.0
Area-rlon   : 180.0

WKID        : 4018
Latest-WKID : 4018
Macro       : PE_GCS_EVEREST_MOD
Name        : GCS_Everest_Modified
WKT         : GEOGCS["GCS_Everest_Modified",
               DATUM["D_Everest_Modified",
                SPHEROID["Everest_1830_Modified", 6377304.063, 300.8017]],
               PRIMEM["Greenwich", 0.0],
               UNIT["Degree", 0.0174532925199433]]
Description : Everest modified
Authority   : EPSG
Version     : 6.5(3.0.1)
Deprecated  : no
Area-name   : Not specified
Area-slat   : -90.0
Area-nlat   : 90.0
Area-llon   : -180.0
Area-rlon   : 180.0

WKID        : 4019
Latest-WKID : 4019
Macro       : PE_GCS_GRS_1980
Name        : GCS_GRS_1980
WKT         : GEOGCS["GCS_GRS_1980",
               DATUM["D_GRS_1980",
                SPHEROID["GRS_1980", 6378137.0, 298.257222101]],
               PRIMEM["Greenwich", 0.0],
               UNIT["Degree", 0.0174532925199433]]
Description : GRS 1980
Authority   : EPSG
Version     : 6.5(3.0.1)
Deprecated  : no
Area-name   : Not specified
Area-slat   : -90.0
Area-nlat   : 90.0
Area-llon   : -180.0
Area-rlon   : 180.0

WKID        : 4020
Latest-WKID : 4020
Macro       : PE_GCS_HELMERT_1906
Name        : GCS_Helmert_1906
WKT         : GEOGCS["GCS_Helmert_1906",
               DATUM["D_Helmert_1906",
                SPHEROID["Helmert_1906", 6378200.0, 298.3]],
               PRIMEM["Greenwich", 0.0],
               UNIT["Degree", 0.0174532925199433]]
Description : Helmert 1906
Authority   : EPSG
Version     : 6.5(3.0.1)
Deprecated  : no
Area-name   : Not specified
Area-slat   : -90.0
Area-nlat   : 90.0
Area-llon   : -180.0
Area-rlon   : 180.0

WKID        : 4021
Latest-WKID : 4021
Macro       : PE_GCS_INDONESIAN
Name        : GCS_Indonesian
WKT         : GEOGCS["GCS_Indonesian",
               DATUM["D_Indonesian",
                SPHEROID["Indonesian", 6378160.0, 298.247]],
               PRIMEM["Greenwich", 0.0],
               UNIT["Degree", 0.0174532925199433]]
Description : Indonesian National
Authority   : EPSG
Version     : 6.5(3.0.1)
Deprecated  : no
Area-name   : Not specified
Area-slat   : -90.0
Area-nlat   : 90.0
Area-llon   : -180.0
Area-rlon   : 180.0

WKID        : 4022
Latest-WKID : 4022
Macro       : PE_GCS_INTERNATIONAL_1924
Name        : GCS_International_1924
WKT         : GEOGCS["GCS_International_1924",
               DATUM["D_International_1924",
                SPHEROID["International_1924", 6378388.0, 297.0]],
               PRIMEM["Greenwich", 0.0],
               UNIT["Degree", 0.0174532925199433]]
Description : International 1927
Authority   : EPSG
Version     : 6.5(3.0.1)
Deprecated  : no
Area-name   : Not specified
Area-slat   : -90.0
Area-nlat   : 90.0
Area-llon   : -180.0
Area-rlon   : 180.0

WKID        : 4023
Latest-WKID : 4023
Macro       : PE_GCS_MOLDREF99
Name        : GCS_MOLDREF99
WKT         : GEOGCS["GCS_MOLDREF99",
               DATUM["D_MOLDREF99",
                SPHEROID["GRS_1980", 6378137.0, 298.257222101]],
               PRIMEM["Greenwich", 0.0],
               UNIT["Degree", 0.0174532925199433]]
Description : MOLDREF99
Authority   : EPSG
Version     : 7.1(4.0.0)
Deprecated  : no
Area-name   : Moldova
Area-slat   : 45.44
Area-nlat   : 48.47
Area-llon   : 26.63
Area-rlon   : 30.13

WKID        : 4024
Latest-WKID : 4024
Macro       : PE_GCS_KRASOVSKY_1940
Name        : GCS_Krasovsky_1940
WKT         : GEOGCS["GCS_Krasovsky_1940",
               DATUM["D_Krasovsky_1940",
                SPHEROID["Krasovsky_1940", 6378245.0, 298.3]],
               PRIMEM["Greenwich", 0.0],
               UNIT["Degree", 0.0174532925199433]]
Description : Krasovsky 1940
Authority   : EPSG
Version     : 6.5(3.0.1)
Deprecated  : no
Area-name   : Not specified
Area-slat   : -90.0
Area-nlat   : 90.0
Area-llon   : -180.0
Area-rlon   : 180.0

WKID        : 4025
Latest-WKID : 4025
Macro       : PE_GCS_NWL_9D
Name        : GCS_NWL_9D
WKT         : GEOGCS["GCS_NWL_9D",
               DATUM["D_NWL_9D",
                SPHEROID["NWL_9D", 6378145.0, 298.25]],
               PRIMEM["Greenwich", 0.0],
               UNIT["Degree", 0.0174532925199433]]
Description : Transit precise ephemeris
Authority   : EPSG
Version     : 6.5(3.0.1)
Deprecated  : no
Area-name   : Not specified
Area-slat   : -90.0
Area-nlat   : 90.0
Area-llon   : -180.0
Area-rlon   : 180.0

WKID        : 4027
Latest-WKID : 4027
Macro       : PE_GCS_PLESSIS_1817
Name        : GCS_Plessis_1817
WKT         : GEOGCS["GCS_Plessis_1817",
               DATUM["D_Plessis_1817",
                SPHEROID["Plessis_1817", 6376523.0, 308.64]],
               PRIMEM["Greenwich", 0.0],
               UNIT["Degree", 0.0174532925199433]]
Description : Plessis 1817
Authority   : EPSG
Version     : 6.5(3.0.1)
Deprecated  : no
Area-name   : Not specified
Area-slat   : -90.0
Area-nlat   : 90.0
Area-llon   : -180.0
Area-rlon   : 180.0

WKID        : 4028
Latest-WKID : 4028
Macro       : PE_GCS_STRUVE_1860
Name        : GCS_Struve_1860
WKT         : GEOGCS["GCS_Struve_1860",
               DATUM["D_Struve_1860",
                SPHEROID["Struve_1860", 6378298.3, 294.73]],
               PRIMEM["Greenwich", 0.0],
               UNIT["Degree", 0.0174532925199433]]
Description : Struve 1860
Authority   : EPSG
Version     : 6.5(3.0.1)
Deprecated  : no
Area-name   : Not specified
Area-slat   : -90.0
Area-nlat   : 90.0
Area-llon   : -180.0
Area-rlon   : 180.0

WKID        : 4029
Latest-WKID : 4029
Macro       : PE_GCS_WAR_OFFICE
Name        : GCS_War_Office
WKT         : GEOGCS["GCS_War_Office",
               DATUM["D_War_Office",
                SPHEROID["War_Office", 6378300.0, 296.0]],
               PRIMEM["Greenwich", 0.0],
               UNIT["Degree", 0.0174532925199433]]
Description : War Office
Authority   : EPSG
Version     : 6.5(3.0.1)
Deprecated  : no
Area-name   : Not specified
Area-slat   : -90.0
Area-nlat   : 90.0
Area-llon   : -180.0
Area-rlon   : 180.0

WKID        : 4031
Latest-WKID : 4031
Macro       : PE_GCS_GEM_10C
Name        : GCS_GEM_10C
WKT         : GEOGCS["GCS_GEM_10C",
               DATUM["D_GEM_10C",
                SPHEROID["GEM_10C", 6378137.0, 298.257223563]],
               PRIMEM["Greenwich", 0.0],
               UNIT["Degree", 0.0174532925199433]]
Description : GEM gravity potential model
Authority   : EPSG
Version     : 6.5(3.0.1)
Deprecated  : no
Area-name   : Not specified
Area-slat   : -90.0
Area-nlat   : 90.0
Area-llon   : -180.0
Area-rlon   : 180.0

WKID        : 4032
Latest-WKID : 4032
Macro       : PE_GCS_OSU_86F
Name        : GCS_OSU_86F
WKT         : GEOGCS["GCS_OSU_86F",
               DATUM["D_OSU_86F",
                SPHEROID["OSU_86F", 6378136.2, 298.257223563]],
               PRIMEM["Greenwich", 0.0],
               UNIT["Degree", 0.0174532925199433]]
Description : OSU 1986 geoidal model
Authority   : EPSG
Version     : 6.5(3.0.1)
Deprecated  : no
Area-name   : Not specified
Area-slat   : -90.0
Area-nlat   : 90.0
Area-llon   : -180.0
Area-rlon   : 180.0

WKID        : 4033
Latest-WKID : 4033
Macro       : PE_GCS_OSU_91A
Name        : GCS_OSU_91A
WKT         : GEOGCS["GCS_OSU_91A",
               DATUM["D_OSU_91A",
                SPHEROID["OSU_91A", 6378136.3, 298.257223563]],
               PRIMEM["Greenwich", 0.0],
               UNIT["Degree", 0.0174532925199433]]
Description : OSU 1991 geoidal model
Authority   : EPSG
Version     : 6.5(3.0.1)
Deprecated  : no
Area-name   : Not specified
Area-slat   : -90.0
Area-nlat   : 90.0
Area-llon   : -180.0
Area-rlon   : 180.0

WKID        : 4034
Latest-WKID : 4034
Macro       : PE_GCS_CLARKE_1880
Name        : GCS_Clarke_1880
WKT         : GEOGCS["GCS_Clarke_1880",
               DATUM["D_Clarke_1880",
                SPHEROID["Clarke_1880", 6378249.144808011, 293.4663076556253]],
               PRIMEM["Greenwich", 0.0],
               UNIT["Degree", 0.0174532925199433]]
Description : Clarke 1880
Authority   : EPSG
Version     : 6.5(3.0.1)
Deprecated  : no
Area-name   : Not specified
Area-slat   : -90.0
Area-nlat   : 90.0
Area-llon   : -180.0
Area-rlon   : 180.0

WKID        : 4035
Latest-WKID : 4035
Macro       : PE_GCS_SPHERE
Name        : GCS_Sphere
WKT         : GEOGCS["GCS_Sphere",
               DATUM["D_Sphere",
                SPHEROID["Sphere", 6371000.0, 0.0]],
               PRIMEM["Greenwich", 0.0],
               UNIT["Degree", 0.0174532925199433]]
Description : Authalic sphere
Authority   : EPSG
Version     : 4.5(3.0.1)
Deprecated  : no
Area-name   : Not specified
Area-slat   : -90.0
Area-nlat   : 90.0
Area-llon   : -180.0
Area-rlon   : 180.0

WKID        : 4036
Latest-WKID : 4036
Macro       : PE_GCS_GRS_1967
Name        : GCS_GRS_1967
WKT         : GEOGCS["GCS_GRS_1967",
               DATUM["D_GRS_1967",
                SPHEROID["GRS_1967", 6378160.0, 298.247167427]],
               PRIMEM["Greenwich", 0.0],
               UNIT["Degree", 0.0174532925199433]]
Description : GRS 1967
Authority   : EPSG
Version     : 6.5(3.0.1)
Deprecated  : no
Area-name   : Not specified
Area-slat   : -90.0
Area-nlat   : 90.0
Area-llon   : -180.0
Area-rlon   : 180.0

WKID        : 4042
Latest-WKID : 4042
Macro       : PE_GCS_EVEREST_1830
Name        : GCS_Everest_1830
WKT         : GEOGCS["GCS_Everest_1830",
               DATUM["D_Everest_1830",
                SPHEROID["Everest_1830", 6377299.36, 300.8017]],
               PRIMEM["Greenwich", 0.0],
               UNIT["Degree", 0.0174532925199433]]
Description : Everest 1830
Authority   : EPSG
Version     : 6.5(8.1.0)
Deprecated  : no
Area-name   : Not specified
Area-slat   : -90.0
Area-nlat   : 90.0
Area-llon   : -180.0
Area-rlon   : 180.0

WKID        : 4044
Latest-WKID : 4044
Macro       : PE_GCS_EVEREST_DEF_1962
Name        : GCS_Everest_def_1962
WKT         : GEOGCS["GCS_Everest_def_1962",
               DATUM["D_Everest_Def_1962",
                SPHEROID["Everest_Definition_1962", 6377301.243, 300.8017255]],
               PRIMEM["Greenwich", 0.0],
               UNIT["Degree", 0.0174532925199433]]
Description : Everest (definition 1962)
Authority   : EPSG
Version     : 6.5(8.1.0)
Deprecated  : no
Area-name   : Not specified
Area-slat   : -90.0
Area-nlat   : 90.0
Area-llon   : -180.0
Area-rlon   : 180.0

WKID        : 4045
Latest-WKID : 4045
Macro       : PE_GCS_EVEREST_DEF_1975
Name        : GCS_Everest_def_1975
WKT         : GEOGCS["GCS_Everest_def_1975",
               DATUM["D_Everest_Def_1975",
                SPHEROID["Everest_Definition_1975", 6377299.151, 300.8017255]],
               PRIMEM["Greenwich", 0.0],
               UNIT["Degree", 0.0174532925199433]]
Description : Everest (definition 1975)
Authority   : EPSG
Version     : 6.5(8.1.0)
Deprecated  : no
Area-name   : Not specified
Area-slat   : -90.0
Area-nlat   : 90.0
Area-llon   : -180.0
Area-rlon   : 180.0

WKID        : 4046
Latest-WKID : 4046
Macro       : PE_GCS_RGRDC_2005
Name        : GCS_RGRDC_2005
WKT         : GEOGCS["GCS_RGRDC_2005",
               DATUM["D_Reseau_Geodesique_de_la_RDC_2005",
                SPHEROID["GRS_1980", 6378137.0, 298.257222101]],
               PRIMEM["Greenwich", 0.0],
               UNIT["Degree", 0.0174532925199433]]
Description : Reseau Geodesique de la RDC 2005
Authority   : EPSG
Version     : 7.1(10.0.0)
Deprecated  : no
Area-name   : Congo DR (Zaire) - south
Area-slat   : -13.46
Area-nlat   : -3.41
Area-llon   : 11.79
Area-rlon   : 29.81

WKID        : 4047
Latest-WKID : 4047
Macro       : PE_GCS_SPHERE_GRS_1980_AUTHALIC
Name        : GCS_Sphere_GRS_1980_Authalic
WKT         : GEOGCS["GCS_Sphere_GRS_1980_Authalic",
               DATUM["D_Sphere_GRS_1980_Authalic",
                SPHEROID["Sphere_GRS_1980_Authalic", 6371007.0, 0.0]],
               PRIMEM["Greenwich", 0.0],
               UNIT["Degree", 0.0174532925199433]]
Description : GRS 1980 Authalic Sphere
Authority   : EPSG
Version     : 6.5(9.3.0.0)
Deprecated  : no
Area-name   : Not specified
Area-slat   : -90.0
Area-nlat   : 90.0
Area-llon   : -180.0
Area-rlon   : 180.0

WKID        : 4052
Latest-WKID : 4052
Macro       : PE_GCS_SPHERE_CLARKE_1866_AUTHALIC
Name        : GCS_Sphere_Clarke_1866_Authalic
WKT         : GEOGCS["GCS_Sphere_Clarke_1866_Authalic",
               DATUM["D_Sphere_Clarke_1866_Authalic",
                SPHEROID["Sphere_Clarke_1866_Authalic", 6370997.0, 0.0]],
               PRIMEM["Greenwich", 0.0],
               UNIT["Degree", 0.0174532925199433]]
Description : Clarke 1866 Authalic Sphere
Authority   : EPSG
Version     : 6.5.2(9.2.0)
Deprecated  : no
Area-name   : Not specified
Area-slat   : -90.0
Area-nlat   : 90.0
Area-llon   : -180.0
Area-rlon   : 180.0

WKID        : 4053
Latest-WKID : 4053
Macro       : PE_GCS_SPHERE_INTL_1924_AUTHALIC
Name        : GCS_Sphere_International_1924_Authalic
WKT         : GEOGCS["GCS_Sphere_International_1924_Authalic",
               DATUM["D_Sphere_International_1924_Authalic",
                SPHEROID["Sphere_International_1924_Authalic", 6371228.0, 0.0]],
               PRIMEM["Greenwich", 0.0],
               UNIT["Degree", 0.0174532925199433]]
Description : International 1924 Authalic Sphere
Authority   : EPSG
Version     : 6.11.1(9.3.0.0)
Deprecated  : no
Area-name   : Not specified
Area-slat   : -90.0
Area-nlat   : 90.0
Area-llon   : -180.0
Area-rlon   : 180.0

WKID        : 4054
Latest-WKID : 4054
Macro       : PE_GCS_HUGHES_1980
Name        : GCS_Hughes_1980
WKT         : GEOGCS["GCS_Hughes_1980",
               DATUM["D_Hughes_1980",
                SPHEROID["Hughes_1980", 6378273.0, 298.279411123064]],
               PRIMEM["Greenwich", 0.0],
               UNIT["Degree", 0.0174532925199433]]
Description : Hughes 1980
Authority   : EPSG
Version     : 6.11.1(9.3.0.0)
Deprecated  : no
Area-name   : Not specified
Area-slat   : -90.0
Area-nlat   : 90.0
Area-llon   : -180.0
Area-rlon   : 180.0

WKID        : 4055
Latest-WKID : 4055
Macro       : PE_GCS_SPHERE_WGS_1984_MAJOR_AUXILIARY
Name        : GCS_WGS_1984_Major_Auxiliary_Sphere
WKT         : GEOGCS["GCS_WGS_1984_Major_Auxiliary_Sphere",
               DATUM["D_WGS_1984_Major_Auxiliary_Sphere",
                SPHEROID["WGS_1984_Major_Auxiliary_Sphere", 6378137.0, 0.0]],
               PRIMEM["Greenwich", 0.0],
               UNIT["Degree", 0.0174532925199433]]
Description : Major auxiliary sphere based on WGS 1984
Authority   : EPSG
Version     : 6.15(10.2.0)
Deprecated  : yes
Area-name   : World
Area-slat   : -90.0
Area-nlat   : 90.0
Area-llon   : -180.0
Area-rlon   : 180.0

WKID        : 4075
Latest-WKID : 4075
Macro       : PE_GCS_SREF98
Name        : GCS_SREF98
WKT         : GEOGCS["GCS_SREF98",
               DATUM["D_Serbian_Reference_Network_1998",
                SPHEROID["GRS_1980", 6378137.0, 298.257222101]],
               PRIMEM["Greenwich", 0.0],
               UNIT["Degree", 0.0174532925199433]]
Description : Serbian Reference Network 1998
Authority   : EPSG
Version     : 9.7(10.0.0)
Deprecated  : no
Area-name   : Serbia and Kosovo
Area-slat   : 41.85
Area-nlat   : 46.19
Area-llon   : 18.81
Area-rlon   : 23.01

WKID        : 4081
Latest-WKID : 4081
Macro       : PE_GCS_REGCAN95
Name        : GCS_REGCAN95
WKT         : GEOGCS["GCS_REGCAN95",
               DATUM["D_Red_Geodesica_de_Canarias_1995",
                SPHEROID["GRS_1980", 6378137.0, 298.257222101]],
               PRIMEM["Greenwich", 0.0],
               UNIT["Degree", 0.0174532925199433]]
Description : Red Geodesica de Canarias 1995
Authority   : EPSG
Version     : 7.1(10.0.0)
Deprecated  : no
Area-name   : Spain - Canary Islands
Area-slat   : 24.6
Area-nlat   : 32.76
Area-llon   : -21.93
Area-rlon   : -11.75

WKID        : 4120
Latest-WKID : 4120
Macro       : PE_GCS_GREEK
Name        : GCS_Greek
WKT         : GEOGCS["GCS_Greek",
               DATUM["D_Greek",
                SPHEROID["Bessel_1841", 6377397.155, 299.1528128]],
               PRIMEM["Greenwich", 0.0],
               UNIT["Degree", 0.0174532925199433]]
Description : Greek
Authority   : EPSG
Version     : 7.8.2(4.0.0)
Deprecated  : no
Area-name   : Greece - onshore
Area-slat   : 34.88
Area-nlat   : 41.75
Area-llon   : 19.57
Area-rlon   : 28.3

WKID        : 4121
Latest-WKID : 4121
Macro       : PE_GCS_GGRS_1987
Name        : GCS_GGRS_1987
WKT         : GEOGCS["GCS_GGRS_1987",
               DATUM["D_GGRS_1987",
                SPHEROID["GRS_1980", 6378137.0, 298.257222101]],
               PRIMEM["Greenwich", 0.0],
               UNIT["Degree", 0.0174532925199433]]
Description : Greek Geodetic Ref. System 1987
Authority   : EPSG
Version     : 7.8.2(4.0.0)
Deprecated  : no
Area-name   : Greece - onshore
Area-slat   : 34.88
Area-nlat   : 41.75
Area-llon   : 19.57
Area-rlon   : 28.3

WKID        : 4122
Latest-WKID : 4122
Macro       : PE_GCS_ATS_1977
Name        : GCS_ATS_1977
WKT         : GEOGCS["GCS_ATS_1977",
               DATUM["D_ATS_1977",
                SPHEROID["ATS_1977", 6378135.0, 298.257]],
               PRIMEM["Greenwich", 0.0],
               UNIT["Degree", 0.0174532925199433]]
Description : Average Terrestrial System 1977
Authority   : EPSG
Version     : 9.8(4.0.0)
Deprecated  : no
Area-name   : Canada - Maritime Provinces
Area-slat   : 43.41
Area-nlat   : 48.07
Area-llon   : -69.05
Area-rlon   : -59.73

WKID        : 4123
Latest-WKID : 4123
Macro       : PE_GCS_KKJ
Name        : GCS_KKJ
WKT         : GEOGCS["GCS_KKJ",
               DATUM["D_KKJ",
                SPHEROID["International_1924", 6378388.0, 297.0]],
               PRIMEM["Greenwich", 0.0],
               UNIT["Degree", 0.0174532925199433]]
Description : Kartastokoordinaattijarjestelma
Authority   : EPSG
Version     : 7.8(4.0.0)
Deprecated  : no
Area-name   : Finland - onshore
Area-slat   : 59.75
Area-nlat   : 70.09
Area-llon   : 19.24
Area-rlon   : 31.59

WKID        : 4124
Latest-WKID : 4124
Macro       : PE_GCS_RT90
Name        : GCS_RT_1990
WKT         : GEOGCS["GCS_RT_1990",
               DATUM["D_RT_1990",
                SPHEROID["Bessel_1841", 6377397.155, 299.1528128]],
               PRIMEM["Greenwich", 0.0],
               UNIT["Degree", 0.0174532925199433]]
Description : RT 1990
Authority   : EPSG
Version     : 6.5(8.0.1)
Deprecated  : no
Area-name   : Sweden
Area-slat   : 54.96
Area-nlat   : 69.07
Area-llon   : 10.03
Area-rlon   : 24.17

WKID        : 4125
Latest-WKID : 4125
Macro       : PE_GCS_SAMBOJA
Name        : GCS_Samboja
WKT         : GEOGCS["GCS_Samboja",
               DATUM["D_Samboja",
                SPHEROID["Bessel_1841", 6377397.155, 299.1528128]],
               PRIMEM["Greenwich", 0.0],
               UNIT["Degree", 0.0174532925199433]]
Description : Samboja (deprecated at 10.5.0)
Authority   : EPSG
Version     : 4.0(8.0.1)
Deprecated  : yes
Area-name   : Indonesia - Kalimantan - Mahakam delta
Area-slat   : -1.24
Area-nlat   : 0.0
Area-llon   : 116.72
Area-rlon   : 117.99

WKID        : 4126
Latest-WKID : 4669
Macro       : PE_GCS_LKS_1994
Name        : GCS_LKS_1994
WKT         : GEOGCS["GCS_LKS_1994",
               DATUM["D_Lithuania_1994",
                SPHEROID["GRS_1980", 6378137.0, 298.257222101]],
               PRIMEM["Greenwich", 0.0],
               UNIT["Degree", 0.0174532925199433]]
Description : LKS 1994
Authority   : EPSG
Version     : 4.0(8.0.1)
Deprecated  : yes
Area-name   : Lithuania
Area-slat   : 53.89
Area-nlat   : 56.45
Area-llon   : 19.02
Area-rlon   : 26.82

WKID        : 4127
Latest-WKID : 4127
Macro       : PE_GCS_TETE
Name        : GCS_Tete
WKT         : GEOGCS["GCS_Tete",
               DATUM["D_Tete",
                SPHEROID["Clarke_1866", 6378206.4, 294.9786982]],
               PRIMEM["Greenwich", 0.0],
               UNIT["Degree", 0.0174532925199433]]
Description : Tete
Authority   : EPSG
Version     : 8.5.6(8.0.1)
Deprecated  : no
Area-name   : Mozambique - onshore
Area-slat   : -26.87
Area-nlat   : -10.42
Area-llon   : 30.21
Area-rlon   : 40.9

WKID        : 4128
Latest-WKID : 4128
Macro       : PE_GCS_MADZANSUA
Name        : GCS_Madzansua
WKT         : GEOGCS["GCS_Madzansua",
               DATUM["D_Madzansua",
                SPHEROID["Clarke_1866", 6378206.4, 294.9786982]],
               PRIMEM["Greenwich", 0.0],
               UNIT["Degree", 0.0174532925199433]]
Description : Madzansua - superseded by Tete
Authority   : EPSG
Version     : 6.5(8.0.1)
Deprecated  : no
Area-name   : Mozambique - west - Tete province
Area-slat   : -17.76
Area-nlat   : -14.01
Area-llon   : 30.21
Area-rlon   : 35.37

WKID        : 4129
Latest-WKID : 4129
Macro       : PE_GCS_OBSERVATARIO
Name        : GCS_Observatario
WKT         : GEOGCS["GCS_Observatario",
               DATUM["D_Observatario",
                SPHEROID["Clarke_1866", 6378206.4, 294.9786982]],
               PRIMEM["Greenwich", 0.0],
               UNIT["Degree", 0.0174532925199433]]
Description : Observatario - superseded by Tete
Authority   : EPSG
Version     : 8.5.6(8.0.1)
Deprecated  : no
Area-name   : Mozambique - south
Area-slat   : -26.87
Area-nlat   : -19.84
Area-llon   : 31.29
Area-rlon   : 35.65

WKID        : 4130
Latest-WKID : 4130
Macro       : PE_GCS_MOZNET
Name        : GCS_Moznet
WKT         : GEOGCS["GCS_Moznet",
               DATUM["D_Moznet",
                SPHEROID["WGS_1984", 6378137.0, 298.257223563]],
               PRIMEM["Greenwich", 0.0],
               UNIT["Degree", 0.0174532925199433]]
Description : Moznet
Authority   : EPSG
Version     : 6.14(8.0.1)
Deprecated  : no
Area-name   : Mozambique
Area-slat   : -27.71
Area-nlat   : -10.09
Area-llon   : 30.21
Area-rlon   : 43.03

WKID        : 4131
Latest-WKID : 4131
Macro       : PE_GCS_INDIAN_1960
Name        : GCS_Indian_1960
WKT         : GEOGCS["GCS_Indian_1960",
               DATUM["D_Indian_1960",
                SPHEROID["Everest_Adjustment_1937", 6377276.345, 300.8017]],
               PRIMEM["Greenwich", 0.0],
               UNIT["Degree", 0.0174532925199433]]
Description : Indian 1960
Authority   : EPSG
Version     : 7.9.8(8.0.1)
Deprecated  : no
Area-name   : Asia - Cambodia and Vietnam - onshore & Cuu Long basin
Area-slat   : 7.99
Area-nlat   : 23.33
Area-llon   : 102.14
Area-rlon   : 110.0

WKID        : 4132
Latest-WKID : 4132
Macro       : PE_GCS_FD_1958
Name        : GCS_FD_1958
WKT         : GEOGCS["GCS_FD_1958",
               DATUM["D_FD_1958",
                SPHEROID["Clarke_1880_RGS", 6378249.145, 293.465]],
               PRIMEM["Greenwich", 0.0],
               UNIT["Degree", 0.0174532925199433]]
Description : Final Datum 1958
Authority   : EPSG
Version     : 6.5(8.0.1)
Deprecated  : no
Area-name   : Iran - FD58
Area-slat   : 26.21
Area-nlat   : 33.22
Area-llon   : 47.13
Area-rlon   : 53.61

WKID        : 4133
Latest-WKID : 4133
Macro       : PE_GCS_ESTONIA_1992
Name        : GCS_Estonia_1992
WKT         : GEOGCS["GCS_Estonia_1992",
               DATUM["D_Estonia_1992",
                SPHEROID["GRS_1980", 6378137.0, 298.257222101]],
               PRIMEM["Greenwich", 0.0],
               UNIT["Degree", 0.0174532925199433]]
Description : Estonia 1992
Authority   : EPSG
Version     : 7.8(8.0.1)
Deprecated  : no
Area-name   : Estonia - onshore
Area-slat   : 57.52
Area-nlat   : 59.75
Area-llon   : 21.74
Area-rlon   : 28.2

WKID        : 4134
Latest-WKID : 4134
Macro       : PE_GCS_PDO_1993
Name        : GCS_PDO_1993
WKT         : GEOGCS["GCS_PDO_1993",
               DATUM["D_PDO_1993",
                SPHEROID["Clarke_1880_RGS", 6378249.145, 293.465]],
               PRIMEM["Greenwich", 0.0],
               UNIT["Degree", 0.0174532925199433]]
Description : PDO Survey Datum 1993
Authority   : EPSG
Version     : 6.18(8.0.1)
Deprecated  : no
Area-name   : Oman - onshore
Area-slat   : 16.59
Area-nlat   : 26.58
Area-llon   : 51.99
Area-rlon   : 59.91

WKID        : 4135
Latest-WKID : 4135
Macro       : PE_GCS_OLD_HAWAIIAN
Name        : GCS_Old_Hawaiian
WKT         : GEOGCS["GCS_Old_Hawaiian",
               DATUM["D_Old_Hawaiian",
                SPHEROID["Clarke_1866", 6378206.4, 294.9786982]],
               PRIMEM["Greenwich", 0.0],
               UNIT["Degree", 0.0174532925199433]]
Description : Old Hawaiian
Authority   : EPSG
Version     : 8.4.1(8.0.1)
Deprecated  : no
Area-name   : USA - Hawaii - onshore
Area-slat   : 18.87
Area-nlat   : 22.29
Area-llon   : -160.3
Area-rlon   : -154.74

WKID        : 4136
Latest-WKID : 4136
Macro       : PE_GCS_ST_LAWRENCE_ISLAND
Name        : GCS_St_Lawrence_Island
WKT         : GEOGCS["GCS_St_Lawrence_Island",
               DATUM["D_St_Lawrence_Island",
                SPHEROID["Clarke_1866", 6378206.4, 294.9786982]],
               PRIMEM["Greenwich", 0.0],
               UNIT["Degree", 0.0174532925199433]]
Description : Alaska - St. Lawrence Island
Authority   : EPSG
Version     : 8.4.1(8.0.1)
Deprecated  : no
Area-name   : USA - Alaska - St. Lawrence Island
Area-slat   : 62.89
Area-nlat   : 63.84
Area-llon   : -171.97
Area-rlon   : -168.59

WKID        : 4137
Latest-WKID : 4137
Macro       : PE_GCS_ST_PAUL_ISLAND
Name        : GCS_St_Paul_Island
WKT         : GEOGCS["GCS_St_Paul_Island",
               DATUM["D_St_Paul_Island",
                SPHEROID["Clarke_1866", 6378206.4, 294.9786982]],
               PRIMEM["Greenwich", 0.0],
               UNIT["Degree", 0.0174532925199433]]
Description : Alaska - St. Paul Island
Authority   : EPSG
Version     : 8.4.1(8.0.1)
Deprecated  : no
Area-name   : USA - Alaska - St. Paul Island
Area-slat   : 57.06
Area-nlat   : 57.28
Area-llon   : -170.51
Area-rlon   : -170.04

WKID        : 4138
Latest-WKID : 4138
Macro       : PE_GCS_ST_GEORGE_ISLAND
Name        : GCS_St_George_Island
WKT         : GEOGCS["GCS_St_George_Island",
               DATUM["D_St_George_Island",
                SPHEROID["Clarke_1866", 6378206.4, 294.9786982]],
               PRIMEM["Greenwich", 0.0],
               UNIT["Degree", 0.0174532925199433]]
Description : Alaska - St. George Island
Authority   : EPSG
Version     : 8.4.1(8.0.1)
Deprecated  : no
Area-name   : USA - Alaska - St. George Island
Area-slat   : 56.49
Area-nlat   : 56.67
Area-llon   : -169.88
Area-rlon   : -169.38

WKID        : 4139
Latest-WKID : 4139
Macro       : PE_GCS_PUERTO_RICO
Name        : GCS_Puerto_Rico
WKT         : GEOGCS["GCS_Puerto_Rico",
               DATUM["D_Puerto_Rico",
                SPHEROID["Clarke_1866", 6378206.4, 294.9786982]],
               PRIMEM["Greenwich", 0.0],
               UNIT["Degree", 0.0174532925199433]]
Description : Puerto Rico
Authority   : EPSG
Version     : 8.4.1(8.0.1)
Deprecated  : no
Area-name   : Caribbean - Puerto Rico and Virgin Islands - onshore
Area-slat   : 17.62
Area-nlat   : 18.78
Area-llon   : -67.97
Area-rlon   : -64.25

WKID        : 4140
Latest-WKID : 4617
Macro       : PE_GCS_NAD_1983_CSRS
Name        : GCS_North_American_1983_CSRS
WKT         : GEOGCS["GCS_North_American_1983_CSRS",
               DATUM["D_North_American_1983_CSRS",
                SPHEROID["GRS_1980", 6378137.0, 298.257222101]],
               PRIMEM["Greenwich", 0.0],
               UNIT["Degree", 0.0174532925199433]]
Description : NAD 1983(Canadian Spatial Ref System)
Authority   : EPSG
Version     : 5.1(8.1.0)
Deprecated  : yes
Area-name   : Canada
Area-slat   : 40.04
Area-nlat   : 86.46
Area-llon   : -141.01
Area-rlon   : -47.74

WKID        : 4141
Latest-WKID : 4141
Macro       : PE_GCS_ISRAEL
Name        : GCS_Israel
WKT         : GEOGCS["GCS_Israel",
               DATUM["D_Israel",
                SPHEROID["GRS_1980", 6378137.0, 298.257222101]],
               PRIMEM["Greenwich", 0.0],
               UNIT["Degree", 0.0174532925199433]]
Description : Israel
Authority   : EPSG
Version     : 8.6(8.1.0)
Deprecated  : no
Area-name   : Israel, Palestine Territory, and Jordan
Area-slat   : 29.19
Area-nlat   : 33.53
Area-llon   : 32.99
Area-rlon   : 39.3

WKID        : 4142
Latest-WKID : 4142
Macro       : PE_GCS_LOCODJO_1965
Name        : GCS_Locodjo_1965
WKT         : GEOGCS["GCS_Locodjo_1965",
               DATUM["D_Locodjo_1965",
                SPHEROID["Clarke_1880_RGS", 6378249.145, 293.465]],
               PRIMEM["Greenwich", 0.0],
               UNIT["Degree", 0.0174532925199433]]
Description : Locodjo 1965
Authority   : EPSG
Version     : 9.0(8.1.0)
Deprecated  : no
Area-name   : Cote d'Ivoire (Ivory Coast)
Area-slat   : 1.02
Area-nlat   : 10.74
Area-llon   : -8.61
Area-rlon   : -2.48

WKID        : 4143
Latest-WKID : 4143
Macro       : PE_GCS_ABIDJAN_1987
Name        : GCS_Abidjan_1987
WKT         : GEOGCS["GCS_Abidjan_1987",
               DATUM["D_Abidjan_1987",
                SPHEROID["Clarke_1880_RGS", 6378249.145, 293.465]],
               PRIMEM["Greenwich", 0.0],
               UNIT["Degree", 0.0174532925199433]]
Description : Abidjan 1987
Authority   : EPSG
Version     : 9.0(8.1.0)
Deprecated  : no
Area-name   : Cote d'Ivoire (Ivory Coast)
Area-slat   : 1.02
Area-nlat   : 10.74
Area-llon   : -8.61
Area-rlon   : -2.48

WKID        : 4144
Latest-WKID : 4144
Macro       : PE_GCS_KALIANPUR_1937
Name        : GCS_Kalianpur_1937
WKT         : GEOGCS["GCS_Kalianpur_1937",
               DATUM["D_Kalianpur_1937",
                SPHEROID["Everest_Adjustment_1937", 6377276.345, 300.8017]],
               PRIMEM["Greenwich", 0.0],
               UNIT["Degree", 0.0174532925199433]]
Description : Kalianpur 1937
Authority   : EPSG
Version     : 6.5(8.1.0)
Deprecated  : no
Area-name   : Asia - Bangladesh; India; Myanmar; Pakistan - onshore
Area-slat   : 8.02
Area-nlat   : 37.07
Area-llon   : 60.86
Area-rlon   : 101.17

WKID        : 4145
Latest-WKID : 4145
Macro       : PE_GCS_KALIANPUR_1962
Name        : GCS_Kalianpur_1962
WKT         : GEOGCS["GCS_Kalianpur_1962",
               DATUM["D_Kalianpur_1962",
                SPHEROID["Everest_Definition_1962", 6377301.243, 300.8017255]],
               PRIMEM["Greenwich", 0.0],
               UNIT["Degree", 0.0174532925199433]]
Description : Kalianpur 1962
Authority   : EPSG
Version     : 9.3(8.1.0)
Deprecated  : no
Area-name   : Pakistan
Area-slat   : 21.05
Area-nlat   : 37.07
Area-llon   : 60.86
Area-rlon   : 77.83

WKID        : 4146
Latest-WKID : 4146
Macro       : PE_GCS_KALIANPUR_1975
Name        : GCS_Kalianpur_1975
WKT         : GEOGCS["GCS_Kalianpur_1975",
               DATUM["D_Kalianpur_1975",
                SPHEROID["Everest_Definition_1975", 6377299.151, 300.8017255]],
               PRIMEM["Greenwich", 0.0],
               UNIT["Degree", 0.0174532925199433]]
Description : Kalianpur 1975
Authority   : EPSG
Version     : 6.5(8.1.0)
Deprecated  : no
Area-name   : India - mainland
Area-slat   : 8.02
Area-nlat   : 35.51
Area-llon   : 68.13
Area-rlon   : 97.42

WKID        : 4147
Latest-WKID : 4147
Macro       : PE_GCS_HANOI_1972
Name        : GCS_Hanoi_1972
WKT         : GEOGCS["GCS_Hanoi_1972",
               DATUM["D_Hanoi_1972",
                SPHEROID["Krasovsky_1940", 6378245.0, 298.3]],
               PRIMEM["Greenwich", 0.0],
               UNIT["Degree", 0.0174532925199433]]
Description : Hanoi 1972
Authority   : EPSG
Version     : 6.11.1(8.1.0)
Deprecated  : no
Area-name   : Vietnam - onshore
Area-slat   : 8.5
Area-nlat   : 23.33
Area-llon   : 102.14
Area-rlon   : 109.52

WKID        : 4148
Latest-WKID : 4148
Macro       : PE_GCS_HARTEBEESTHOEK94
Name        : GCS_Hartebeesthoek_1994
WKT         : GEOGCS["GCS_Hartebeesthoek_1994",
               DATUM["D_Hartebeesthoek_1994",
                SPHEROID["WGS_1984", 6378137.0, 298.257223563]],
               PRIMEM["Greenwich", 0.0],
               UNIT["Degree", 0.0174532925199433]]
Description : Hartebeesthoek 1994
Authority   : EPSG
Version     : 9.5.5(8.1.0)
Deprecated  : no
Area-name   : South Africa
Area-slat   : -50.32
Area-nlat   : -22.13
Area-llon   : 13.33
Area-rlon   : 42.85

WKID        : 4149
Latest-WKID : 4149
Macro       : PE_GCS_CH1903
Name        : GCS_CH1903
WKT         : GEOGCS["GCS_CH1903",
               DATUM["D_CH1903",
                SPHEROID["Bessel_1841", 6377397.155, 299.1528128]],
               PRIMEM["Greenwich", 0.0],
               UNIT["Degree", 0.0174532925199433]]
Description : CH 1903
Authority   : EPSG
Version     : 8.8(8.1.0)
Deprecated  : no
Area-name   : Europe - Liechtenstein and Switzerland
Area-slat   : 45.82
Area-nlat   : 47.81
Area-llon   : 5.96
Area-rlon   : 10.49

WKID        : 4150
Latest-WKID : 4150
Macro       : PE_GCS_CH1903_PLUS
Name        : GCS_CH1903+
WKT         : GEOGCS["GCS_CH1903+",
               DATUM["D_CH1903+",
                SPHEROID["Bessel_1841", 6377397.155, 299.1528128]],
               PRIMEM["Greenwich", 0.0],
               UNIT["Degree", 0.0174532925199433]]
Description : CH 1903+
Authority   : EPSG
Version     : 8.8(8.1.0)
Deprecated  : no
Area-name   : Europe - Liechtenstein and Switzerland
Area-slat   : 45.82
Area-nlat   : 47.81
Area-llon   : 5.96
Area-rlon   : 10.49

WKID        : 4151
Latest-WKID : 4151
Macro       : PE_GCS_CHTRF_1995
Name        : GCS_Swiss_TRF_1995
WKT         : GEOGCS["GCS_Swiss_TRF_1995",
               DATUM["D_Swiss_TRF_1995",
                SPHEROID["GRS_1980", 6378137.0, 298.257222101]],
               PRIMEM["Greenwich", 0.0],
               UNIT["Degree", 0.0174532925199433]]
Description : Swiss Terrestrial Ref Frame 1995
Authority   : EPSG
Version     : 6.14(8.1.0)
Deprecated  : no
Area-name   : Europe - Liechtenstein and Switzerland
Area-slat   : 45.82
Area-nlat   : 47.81
Area-llon   : 5.96
Area-rlon   : 10.49

WKID        : 4152
Latest-WKID : 4152
Macro       : PE_GCS_NAD_1983_HARN
Name        : GCS_North_American_1983_HARN
WKT         : GEOGCS["GCS_North_American_1983_HARN",
               DATUM["D_North_American_1983_HARN",
                SPHEROID["GRS_1980", 6378137.0, 298.257222101]],
               PRIMEM["Greenwich", 0.0],
               UNIT["Degree", 0.0174532925199433]]
Description : North American Datum 1983 (HARN)
Authority   : EPSG
Version     : 9.8(8.1.0)
Deprecated  : no
Area-name   : USA - HARN
Area-slat   : -14.59
Area-nlat   : 71.4
Area-llon   : 144.58
Area-rlon   : -64.51

WKID        : 4153
Latest-WKID : 4153
Macro       : PE_GCS_RASSADIRAN
Name        : GCS_Rassadiran
WKT         : GEOGCS["GCS_Rassadiran",
               DATUM["D_Rassadiran",
                SPHEROID["International_1924", 6378388.0, 297.0]],
               PRIMEM["Greenwich", 0.0],
               UNIT["Degree", 0.0174532925199433]]
Description : Rassadiran
Authority   : EPSG
Version     : 6.5(8.1.0)
Deprecated  : no
Area-name   : Iran - Taheri refinery
Area-slat   : 27.39
Area-nlat   : 27.61
Area-llon   : 52.5
Area-rlon   : 52.71

WKID        : 4154
Latest-WKID : 4154
Macro       : PE_GCS_ED_1950_ED77
Name        : GCS_European_1950_ED77
WKT         : GEOGCS["GCS_European_1950_ED77",
               DATUM["D_European_1950_ED77",
                SPHEROID["International_1924", 6378388.0, 297.0]],
               PRIMEM["Greenwich", 0.0],
               UNIT["Degree", 0.0174532925199433]]
Description : ED 1950 (ED77)
Authority   : EPSG
Version     : 6.5(8.1.0)
Deprecated  : no
Area-name   : Iran
Area-slat   : 23.34
Area-nlat   : 39.78
Area-llon   : 44.03
Area-rlon   : 63.34

WKID        : 4155
Latest-WKID : 4155
Macro       : PE_GCS_DABOLA_1981
Name        : GCS_Dabola_1981
WKT         : GEOGCS["GCS_Dabola_1981",
               DATUM["D_Dabola_1981",
                SPHEROID["Clarke_1880_IGN", 6378249.2, 293.4660212936265]],
               PRIMEM["Greenwich", 0.0],
               UNIT["Degree", 0.0174532925199433]]
Description : Dabola 1981
Authority   : EPSG
Version     : 6.5(8.1.0)
Deprecated  : no
Area-name   : Guinea - onshore
Area-slat   : 7.19
Area-nlat   : 12.68
Area-llon   : -15.13
Area-rlon   : -7.65

WKID        : 4156
Latest-WKID : 4156
Macro       : PE_GCS_S_JTSK
Name        : GCS_S_JTSK
WKT         : GEOGCS["GCS_S_JTSK",
               DATUM["D_S_JTSK",
                SPHEROID["Bessel_1841", 6377397.155, 299.1528128]],
               PRIMEM["Greenwich", 0.0],
               UNIT["Degree", 0.0174532925199433]]
Description : S-JTSK
Authority   : EPSG
Version     : 9.2.2(8.1.0)
Deprecated  : no
Area-name   : Europe - Czechoslovakia
Area-slat   : 47.73
Area-nlat   : 51.06
Area-llon   : 12.09
Area-rlon   : 22.56

WKID        : 4157
Latest-WKID : 4157
Macro       : PE_GCS_MOUNT_DILLON
Name        : GCS_Mount_Dillon
WKT         : GEOGCS["GCS_Mount_Dillon",
               DATUM["D_Mount_Dillon",
                SPHEROID["Clarke_1858", 6378293.645208759, 294.260676369]],
               PRIMEM["Greenwich", 0.0],
               UNIT["Degree", 0.0174532925199433]]
Description : Mount Dillon
Authority   : EPSG
Version     : 6.5(8.1.2)
Deprecated  : no
Area-name   : Trinidad and Tobago - Tobago - onshore
Area-slat   : 11.08
Area-nlat   : 11.41
Area-llon   : -60.9
Area-rlon   : -60.44

WKID        : 4158
Latest-WKID : 4158
Macro       : PE_GCS_NAPARIMA_1955
Name        : GCS_Naparima_1955
WKT         : GEOGCS["GCS_Naparima_1955",
               DATUM["D_Naparima_1955",
                SPHEROID["International_1924", 6378388.0, 297.0]],
               PRIMEM["Greenwich", 0.0],
               UNIT["Degree", 0.0174532925199433]]
Description : Naparima 1955
Authority   : EPSG
Version     : 9.1(8.1.2)
Deprecated  : no
Area-name   : Trinidad and Tobago - Trinidad - onshore
Area-slat   : 9.99
Area-nlat   : 10.9
Area-llon   : -61.98
Area-rlon   : -60.85

WKID        : 4159
Latest-WKID : 4159
Macro       : PE_GCS_EUROPEAN_LIBYAN_1979
Name        : GCS_European_Libyan_Datum_1979
WKT         : GEOGCS["GCS_European_Libyan_Datum_1979",
               DATUM["D_European_Libyan_1979",
                SPHEROID["International_1924", 6378388.0, 297.0]],
               PRIMEM["Greenwich", 0.0],
               UNIT["Degree", 0.0174532925199433]]
Description : European Libyan Datum 1979
Authority   : EPSG
Version     : 6.5(8.1.2)
Deprecated  : no
Area-name   : Libya
Area-slat   : 19.5
Area-nlat   : 35.23
Area-llon   : 9.31
Area-rlon   : 26.21

WKID        : 4160
Latest-WKID : 4160
Macro       : PE_GCS_CHOS_MALAL_1914
Name        : GCS_Chos_Malal_1914
WKT         : GEOGCS["GCS_Chos_Malal_1914",
               DATUM["D_Chos_Malal_1914",
                SPHEROID["International_1924", 6378388.0, 297.0]],
               PRIMEM["Greenwich", 0.0],
               UNIT["Degree", 0.0174532925199433]]
Description : Chos Malal 1914
Authority   : EPSG
Version     : 7.4.8(8.1.2)
Deprecated  : no
Area-name   : Argentina - Neuquen province
Area-slat   : -41.1
Area-nlat   : -36.14
Area-llon   : -71.96
Area-rlon   : -68.01

WKID        : 4161
Latest-WKID : 4161
Macro       : PE_GCS_PAMPA_DEL_CASTILLO
Name        : GCS_Pampa_del_Castillo
WKT         : GEOGCS["GCS_Pampa_del_Castillo",
               DATUM["D_Pampa_del_Castillo",
                SPHEROID["International_1924", 6378388.0, 297.0]],
               PRIMEM["Greenwich", 0.0],
               UNIT["Degree", 0.0174532925199433]]
Description : Pampa del Castillo
Authority   : EPSG
Version     : 7.4.8(8.1.2)
Deprecated  : no
Area-name   : Argentina -  42.5~S to 50.3~S
Area-slat   : -50.34
Area-nlat   : -42.49
Area-llon   : -73.59
Area-rlon   : -65.47

WKID        : 4162
Latest-WKID : 4162
Macro       : PE_GCS_KOREAN_1985
Name        : GCS_Korean_Datum_1985
WKT         : GEOGCS["GCS_Korean_Datum_1985",
               DATUM["D_Korean_Datum_1985",
                SPHEROID["Bessel_1841", 6377397.155, 299.1528128]],
               PRIMEM["Greenwich", 0.0],
               UNIT["Degree", 0.0174532925199433]]
Description : Korean Datum 1985
Authority   : EPSG
Version     : 6.8(8.1.2)
Deprecated  : no
Area-name   : Korea, Republic of (South Korea) - onshore
Area-slat   : 33.14
Area-nlat   : 38.64
Area-llon   : 124.53
Area-rlon   : 131.01

WKID        : 4163
Latest-WKID : 4163
Macro       : PE_GCS_YEMEN_NGN_1996
Name        : GCS_Yemen_NGN_1996
WKT         : GEOGCS["GCS_Yemen_NGN_1996",
               DATUM["D_Yemen_NGN_1996",
                SPHEROID["WGS_1984", 6378137.0, 298.257223563]],
               PRIMEM["Greenwich", 0.0],
               UNIT["Degree", 0.0174532925199433]]
Description : Yemen Nat'l Geodetic Network 1996
Authority   : EPSG
Version     : 6.14(8.1.2)
Deprecated  : no
Area-name   : Yemen
Area-slat   : 8.95
Area-nlat   : 19.0
Area-llon   : 41.08
Area-rlon   : 57.96

WKID        : 4164
Latest-WKID : 4164
Macro       : PE_GCS_SOUTH_YEMEN
Name        : GCS_South_Yemen
WKT         : GEOGCS["GCS_South_Yemen",
               DATUM["D_South_Yemen",
                SPHEROID["Krasovsky_1940", 6378245.0, 298.3]],
               PRIMEM["Greenwich", 0.0],
               UNIT["Degree", 0.0174532925199433]]
Description : South Yemen
Authority   : EPSG
Version     : 6.5(8.1.2)
Deprecated  : no
Area-name   : Yemen - South Yemen - mainland
Area-slat   : 12.54
Area-nlat   : 19.0
Area-llon   : 43.37
Area-rlon   : 53.14

WKID        : 4165
Latest-WKID : 4165
Macro       : PE_GCS_BISSAU
Name        : GCS_Bissau
WKT         : GEOGCS["GCS_Bissau",
               DATUM["D_Bissau",
                SPHEROID["International_1924", 6378388.0, 297.0]],
               PRIMEM["Greenwich", 0.0],
               UNIT["Degree", 0.0174532925199433]]
Description : Bissau
Authority   : EPSG
Version     : 6.5(8.1.0)
Deprecated  : no
Area-name   : Guinea-Bissau - onshore
Area-slat   : 10.87
Area-nlat   : 12.69
Area-llon   : -16.77
Area-rlon   : -13.64

WKID        : 4166
Latest-WKID : 4166
Macro       : PE_GCS_KOREAN_1995
Name        : GCS_Korean_Datum_1995
WKT         : GEOGCS["GCS_Korean_Datum_1995",
               DATUM["D_Korean_Datum_1995",
                SPHEROID["WGS_1984", 6378137.0, 298.257223563]],
               PRIMEM["Greenwich", 0.0],
               UNIT["Degree", 0.0174532925199433]]
Description : Korean Datum 1995
Authority   : EPSG
Version     : 6.8(8.1.2)
Deprecated  : no
Area-name   : Korea, Republic of (South Korea) - onshore
Area-slat   : 33.14
Area-nlat   : 38.64
Area-llon   : 124.53
Area-rlon   : 131.01

WKID        : 4167
Latest-WKID : 4167
Macro       : PE_GCS_NZGD_2000
Name        : GCS_NZGD_2000
WKT         : GEOGCS["GCS_NZGD_2000",
               DATUM["D_NZGD_2000",
                SPHEROID["GRS_1980", 6378137.0, 298.257222101]],
               PRIMEM["Greenwich", 0.0],
               UNIT["Degree", 0.0174532925199433]]
Description : New Zealand Geodetic Datum 2000
Authority   : EPSG
Version     : 9.6.4(9.0.0)
Deprecated  : no
Area-name   : New Zealand
Area-slat   : -55.95
Area-nlat   : -25.88
Area-llon   : 160.6
Area-rlon   : -171.2

WKID        : 4168
Latest-WKID : 4168
Macro       : PE_GCS_ACCRA
Name        : GCS_Accra
WKT         : GEOGCS["GCS_Accra",
               DATUM["D_Accra",
                SPHEROID["War_Office", 6378300.0, 296.0]],
               PRIMEM["Greenwich", 0.0],
               UNIT["Degree", 0.0174532925199433]]
Description : Accra
Authority   : EPSG
Version     : 6.5(8.1.2)
Deprecated  : no
Area-name   : Ghana
Area-slat   : 1.4
Area-nlat   : 11.16
Area-llon   : -3.79
Area-rlon   : 2.1

WKID        : 4169
Latest-WKID : 4169
Macro       : PE_GCS_SAMOA_1962
Name        : GCS_American_Samoa_1962
WKT         : GEOGCS["GCS_American_Samoa_1962",
               DATUM["D_American_Samoa_1962",
                SPHEROID["Clarke_1866", 6378206.4, 294.9786982]],
               PRIMEM["Greenwich", 0.0],
               UNIT["Degree", 0.0174532925199433]]
Description : American Samoa 1962
Authority   : EPSG
Version     : 6.7(9.2.0)
Deprecated  : no
Area-name   : American Samoa - 2 main island groups
Area-slat   : -14.43
Area-nlat   : -14.11
Area-llon   : -170.88
Area-rlon   : -169.38

WKID        : 4170
Latest-WKID : 4170
Macro       : PE_GCS_SIRGAS
Name        : GCS_SIRGAS
WKT         : GEOGCS["GCS_SIRGAS",
               DATUM["D_SIRGAS",
                SPHEROID["GRS_1980", 6378137.0, 298.257222101]],
               PRIMEM["Greenwich", 0.0],
               UNIT["Degree", 0.0174532925199433]]
Description : SIRGAS
Authority   : EPSG
Version     : 9.7(8.1.2)
Deprecated  : no
Area-name   : South America - SIRGAS 1995 by country
Area-slat   : -59.87
Area-nlat   : 16.75
Area-llon   : -113.21
Area-rlon   : -26.0

WKID        : 4171
Latest-WKID : 4171
Macro       : PE_GCS_RGF_1993
Name        : GCS_RGF_1993
WKT         : GEOGCS["GCS_RGF_1993",
               DATUM["D_RGF_1993",
                SPHEROID["GRS_1980", 6378137.0, 298.257222101]],
               PRIMEM["Greenwich", 0.0],
               UNIT["Degree", 0.0174532925199433]]
Description : Reseau Geodesique Francais 1993
Authority   : EPSG
Version     : 8.7.1(9.0.0)
Deprecated  : no
Area-name   : France
Area-slat   : 41.15
Area-nlat   : 51.56
Area-llon   : -9.86
Area-rlon   : 10.38

WKID        : 4172
Latest-WKID : 4172
Macro       : PE_GCS_POSGAR
Name        : GCS_POSGAR
WKT         : GEOGCS["GCS_POSGAR",
               DATUM["D_POSGAR",
                SPHEROID["GRS_1980", 6378137.0, 298.257222101]],
               PRIMEM["Greenwich", 0.0],
               UNIT["Degree", 0.0174532925199433]]
Description : POSGAR
Authority   : EPSG
Version     : 5.1(8.1.2)
Deprecated  : no
Area-name   : Argentina
Area-slat   : -58.41
Area-nlat   : -21.78
Area-llon   : -73.59
Area-rlon   : -52.63

WKID        : 4173
Latest-WKID : 4173
Macro       : PE_GCS_IRENET95
Name        : GCS_IRENET95
WKT         : GEOGCS["GCS_IRENET95",
               DATUM["D_IRENET95",
                SPHEROID["GRS_1980", 6378137.0, 298.257222101]],
               PRIMEM["Greenwich", 0.0],
               UNIT["Degree", 0.0174532925199433]]
Description : IRENET95
Authority   : EPSG
Version     : 7.9.3(8.1.2)
Deprecated  : no
Area-name   : Europe - Ireland (Republic and Ulster) - onshore
Area-slat   : 51.39
Area-nlat   : 55.43
Area-llon   : -10.56
Area-rlon   : -5.34

WKID        : 4174
Latest-WKID : 4174
Macro       : PE_GCS_SIERRA_LEONE_1924
Name        : GCS_Sierra_Leone_1924
WKT         : GEOGCS["GCS_Sierra_Leone_1924",
               DATUM["D_Sierra_Leone_1924",
                SPHEROID["War_Office", 6378300.0, 296.0]],
               PRIMEM["Greenwich", 0.0],
               UNIT["Degree", 0.0174532925199433]]
Description : Sierra Leone 1924
Authority   : EPSG
Version     : 6.5(8.1.2)
Deprecated  : no
Area-name   : Sierra Leone - Freetown Peninsula
Area-slat   : 8.32
Area-nlat   : 8.55
Area-llon   : -13.34
Area-rlon   : -13.13

WKID        : 4175
Latest-WKID : 4175
Macro       : PE_GCS_SIERRA_LEONE_1968
Name        : GCS_Sierra_Leone_1968
WKT         : GEOGCS["GCS_Sierra_Leone_1968",
               DATUM["D_Sierra_Leone_1968",
                SPHEROID["Clarke_1880_RGS", 6378249.145, 293.465]],
               PRIMEM["Greenwich", 0.0],
               UNIT["Degree", 0.0174532925199433]]
Description : Sierra Leone 1968
Authority   : EPSG
Version     : 6.5(8.1.2)
Deprecated  : no
Area-name   : Sierra Leone - onshore
Area-slat   : 6.88
Area-nlat   : 10.0
Area-llon   : -13.35
Area-rlon   : -10.26

WKID        : 4176
Latest-WKID : 4176
Macro       : PE_GCS_AUSTRALIAN_ANTARCTIC_1998
Name        : GCS_Australian_Antarctic_1998
WKT         : GEOGCS["GCS_Australian_Antarctic_1998",
               DATUM["D_Australian_Antarctic_1998",
                SPHEROID["GRS_1980", 6378137.0, 298.257222101]],
               PRIMEM["Greenwich", 0.0],
               UNIT["Degree", 0.0174532925199433]]
Description : Australian Antarctic Datum 1998
Authority   : EPSG
Version     : 6.14(9.0.0)
Deprecated  : no
Area-name   : Antarctica - Australian sector
Area-slat   : -90.0
Area-nlat   : -60.0
Area-llon   : 45.0
Area-rlon   : 160.0

WKID        : 4178
Latest-WKID : 4178
Macro       : PE_GCS_PULKOVO_1942_ADJ_1983
Name        : GCS_Pulkovo_1942_Adj_1983
WKT         : GEOGCS["GCS_Pulkovo_1942_Adj_1983",
               DATUM["D_Pulkovo_1942_Adj_1983",
                SPHEROID["Krasovsky_1940", 6378245.0, 298.3]],
               PRIMEM["Greenwich", 0.0],
               UNIT["Degree", 0.0174532925199433]]
Description : Pulkovo 1942/83
Authority   : EPSG
Version     : 7.9.3(9.0.0)
Deprecated  : no
Area-name   : Europe - onshore - eastern - S-42(83)
Area-slat   : 41.24
Area-nlat   : 54.74
Area-llon   : 9.92
Area-rlon   : 28.68

WKID        : 4179
Latest-WKID : 4179
Macro       : PE_GCS_PULKOVO_1942_ADJ_1958
Name        : GCS_Pulkovo_1942_Adj_1958
WKT         : GEOGCS["GCS_Pulkovo_1942_Adj_1958",
               DATUM["D_Pulkovo_1942_Adj_1958",
                SPHEROID["Krasovsky_1940", 6378245.0, 298.3]],
               PRIMEM["Greenwich", 0.0],
               UNIT["Degree", 0.0174532925199433]]
Description : Pulkovo 1942/58
Authority   : EPSG
Version     : 6.18(9.0.0)
Deprecated  : no
Area-name   : Europe - onshore - eastern - S-42(58)
Area-slat   : 39.63
Area-nlat   : 54.89
Area-llon   : 9.92
Area-rlon   : 31.41

WKID        : 4180
Latest-WKID : 4180
Macro       : PE_GCS_ESTONIA_1997
Name        : GCS_Estonia_1997
WKT         : GEOGCS["GCS_Estonia_1997",
               DATUM["D_Estonia_1997",
                SPHEROID["GRS_1980", 6378137.0, 298.257222101]],
               PRIMEM["Greenwich", 0.0],
               UNIT["Degree", 0.0174532925199433]]
Description : Estonia 1997
Authority   : EPSG
Version     : 6.14(9.0.0)
Deprecated  : no
Area-name   : Estonia
Area-slat   : 57.52
Area-nlat   : 60.0
Area-llon   : 20.37
Area-rlon   : 28.2

WKID        : 4181
Latest-WKID : 4181
Macro       : PE_GCS_LUXEMBOURG_1930
Name        : GCS_Luxembourg_1930
WKT         : GEOGCS["GCS_Luxembourg_1930",
               DATUM["D_Luxembourg_1930",
                SPHEROID["International_1924", 6378388.0, 297.0]],
               PRIMEM["Greenwich", 0.0],
               UNIT["Degree", 0.0174532925199433]]
Description : Luxembourg 1930
Authority   : EPSG
Version     : 6.5(9.0.0)
Deprecated  : no
Area-name   : Luxembourg
Area-slat   : 49.44
Area-nlat   : 50.19
Area-llon   : 5.73
Area-rlon   : 6.53

WKID        : 4182
Latest-WKID : 4182
Macro       : PE_GCS_AZORES_OCCIDENTAL_1939
Name        : GCS_Azores_Occidental_1939
WKT         : GEOGCS["GCS_Azores_Occidental_1939",
               DATUM["D_Azores_Occidental_Islands_1939",
                SPHEROID["International_1924", 6378388.0, 297.0]],
               PRIMEM["Greenwich", 0.0],
               UNIT["Degree", 0.0174532925199433]]
Description : Azores Occidental Islands 1939
Authority   : EPSG
Version     : 7.4.8(9.0.0)
Deprecated  : no
Area-name   : Portugal - Azores W - onshore
Area-slat   : 39.3
Area-nlat   : 39.77
Area-llon   : -31.34
Area-rlon   : -31.02

WKID        : 4183
Latest-WKID : 4183
Macro       : PE_GCS_AZORES_CENTRAL_1948
Name        : GCS_Azores_Central_1948
WKT         : GEOGCS["GCS_Azores_Central_1948",
               DATUM["D_Azores_Central_Islands_1948",
                SPHEROID["International_1924", 6378388.0, 297.0]],
               PRIMEM["Greenwich", 0.0],
               UNIT["Degree", 0.0174532925199433]]
Description : Azores Central Islands 1948
Authority   : EPSG
Version     : 6.5(9.0.0)
Deprecated  : no
Area-name   : Portugal - Azores C - onshore
Area-slat   : 38.32
Area-nlat   : 39.14
Area-llon   : -28.9
Area-rlon   : -26.97

WKID        : 4184
Latest-WKID : 4184
Macro       : PE_GCS_AZORES_ORIENTAL_1940
Name        : GCS_Azores_Oriental_1940
WKT         : GEOGCS["GCS_Azores_Oriental_1940",
               DATUM["D_Azores_Oriental_Islands_1940",
                SPHEROID["International_1924", 6378388.0, 297.0]],
               PRIMEM["Greenwich", 0.0],
               UNIT["Degree", 0.0174532925199433]]
Description : Azores Oriental Islands 1940
Authority   : EPSG
Version     : 6.5(9.0.0)
Deprecated  : no
Area-name   : Portugal - Azores E - onshore
Area-slat   : 36.87
Area-nlat   : 37.96
Area-llon   : -25.92
Area-rlon   : -24.62

WKID        : 4185
Latest-WKID : 4185
Macro       : PE_GCS_MADEIRA_1936
Name        : GCS_Madeira_1936
WKT         : GEOGCS["GCS_Madeira_1936",
               DATUM["D_Madeira_1936",
                SPHEROID["International_1924", 6378388.0, 297.0]],
               PRIMEM["Greenwich", 0.0],
               UNIT["Degree", 0.0174532925199433]]
Description : Madeira 1936
Authority   : EPSG
Version     : 5.2(9.0.0)
Deprecated  : no
Area-name   : Portugal - Madeira archipelago onshore
Area-slat   : 32.35
Area-nlat   : 33.15
Area-llon   : -17.31
Area-rlon   : -16.23

WKID        : 4188
Latest-WKID : 4188
Macro       : PE_GCS_OSNI_1952
Name        : GCS_OSNI_1952
WKT         : GEOGCS["GCS_OSNI_1952",
               DATUM["D_OSNI_1952",
                SPHEROID["Airy_1830", 6377563.396, 299.3249646]],
               PRIMEM["Greenwich", 0.0],
               UNIT["Degree", 0.0174532925199433]]
Description : OSNI 1952
Authority   : EPSG
Version     : 6.5(9.0.0)
Deprecated  : no
Area-name   : UK - Northern Ireland - onshore
Area-slat   : 53.96
Area-nlat   : 55.36
Area-llon   : -8.18
Area-rlon   : -5.34

WKID        : 4189
Latest-WKID : 4189
Macro       : PE_GCS_REGVEN
Name        : GCS_REGVEN
WKT         : GEOGCS["GCS_REGVEN",
               DATUM["D_REGVEN",
                SPHEROID["GRS_1980", 6378137.0, 298.257222101]],
               PRIMEM["Greenwich", 0.0],
               UNIT["Degree", 0.0174532925199433]]
Description : REGVEN
Authority   : EPSG
Version     : 6.14(9.0.0)
Deprecated  : no
Area-name   : Venezuela
Area-slat   : 0.64
Area-nlat   : 16.75
Area-llon   : -73.38
Area-rlon   : -58.95

WKID        : 4190
Latest-WKID : 4190
Macro       : PE_GCS_POSGAR_1998
Name        : GCS_POSGAR_1998
WKT         : GEOGCS["GCS_POSGAR_1998",
               DATUM["D_POSGAR_1998",
                SPHEROID["GRS_1980", 6378137.0, 298.257222101]],
               PRIMEM["Greenwich", 0.0],
               UNIT["Degree", 0.0174532925199433]]
Description : POSGAR 1998
Authority   : EPSG
Version     : 7.6.9(9.0.0)
Deprecated  : no
Area-name   : Argentina
Area-slat   : -58.41
Area-nlat   : -21.78
Area-llon   : -73.59
Area-rlon   : -52.63

WKID        : 4191
Latest-WKID : 4191
Macro       : PE_GCS_ALBANIAN_1987
Name        : GCS_Albanian_1987
WKT         : GEOGCS["GCS_Albanian_1987",
               DATUM["D_Albanian_1987",
                SPHEROID["Krasovsky_1940", 6378245.0, 298.3]],
               PRIMEM["Greenwich", 0.0],
               UNIT["Degree", 0.0174532925199433]]
Description : Albanian 1987
Authority   : EPSG
Version     : 8.6(9.0.0)
Deprecated  : no
Area-name   : Albania - onshore
Area-slat   : 39.64
Area-nlat   : 42.67
Area-llon   : 19.22
Area-rlon   : 21.06

WKID        : 4192
Latest-WKID : 4192
Macro       : PE_GCS_DOUALA_1948
Name        : GCS_Douala_1948
WKT         : GEOGCS["GCS_Douala_1948",
               DATUM["D_Douala_1948",
                SPHEROID["International_1924", 6378388.0, 297.0]],
               PRIMEM["Greenwich", 0.0],
               UNIT["Degree", 0.0174532925199433]]
Description : Douala 1948
Authority   : EPSG
Version     : 6.5(9.0.0)
Deprecated  : no
Area-name   : Cameroon - coastal area
Area-slat   : 2.16
Area-nlat   : 4.99
Area-llon   : 8.45
Area-rlon   : 10.4

WKID        : 4193
Latest-WKID : 4193
Macro       : PE_GCS_MANOCA_1962
Name        : GCS_Manoca_1962
WKT         : GEOGCS["GCS_Manoca_1962",
               DATUM["D_Manoca_1962",
                SPHEROID["Clarke_1880_IGN", 6378249.2, 293.4660212936265]],
               PRIMEM["Greenwich", 0.0],
               UNIT["Degree", 0.0174532925199433]]
Description : Manoca 1962
Authority   : EPSG
Version     : 6.5(9.0.0)
Deprecated  : no
Area-name   : Cameroon - coastal area
Area-slat   : 2.16
Area-nlat   : 4.99
Area-llon   : 8.45
Area-rlon   : 10.4

WKID        : 4194
Latest-WKID : 4194
Macro       : PE_GCS_QORNOQ_1927
Name        : GCS_Qornoq_1927
WKT         : GEOGCS["GCS_Qornoq_1927",
               DATUM["D_Qornoq_1927",
                SPHEROID["International_1924", 6378388.0, 297.0]],
               PRIMEM["Greenwich", 0.0],
               UNIT["Degree", 0.0174532925199433]]
Description : Qornoq 1927
Authority   : EPSG
Version     : 6.10(9.0.0)
Deprecated  : no
Area-name   : Greenland - west coast
Area-slat   : 59.74
Area-nlat   : 79.0
Area-llon   : -73.29
Area-rlon   : -42.52

WKID        : 4195
Latest-WKID : 4195
Macro       : PE_GCS_SCORESBYSUND_1952
Name        : GCS_Scoresbysund_1952
WKT         : GEOGCS["GCS_Scoresbysund_1952",
               DATUM["D_Scoresbysund_1952",
                SPHEROID["International_1924", 6378388.0, 297.0]],
               PRIMEM["Greenwich", 0.0],
               UNIT["Degree", 0.0174532925199433]]
Description : Scoresbysund 1952
Authority   : EPSG
Version     : 6.5(9.0.0)
Deprecated  : no
Area-name   : Greenland - Scoresbysund area
Area-slat   : 68.66
Area-nlat   : 74.58
Area-llon   : -29.69
Area-rlon   : -19.89

WKID        : 4196
Latest-WKID : 4196
Macro       : PE_GCS_AMMASSALIK_1958
Name        : GCS_Ammassalik_1958
WKT         : GEOGCS["GCS_Ammassalik_1958",
               DATUM["D_Ammassalik_1958",
                SPHEROID["International_1924", 6378388.0, 297.0]],
               PRIMEM["Greenwich", 0.0],
               UNIT["Degree", 0.0174532925199433]]
Description : Ammassalik 1958
Authority   : EPSG
Version     : 6.5(9.0.0)
Deprecated  : no
Area-name   : Greenland - Ammassalik area
Area-slat   : 65.52
Area-nlat   : 65.91
Area-llon   : -38.86
Area-rlon   : -36.81

WKID        : 4197
Latest-WKID : 4197
Macro       : PE_GCS_GAROUA
Name        : GCS_Garoua
WKT         : GEOGCS["GCS_Garoua",
               DATUM["D_Garoua",
                SPHEROID["Clarke_1880_RGS", 6378249.145, 293.465]],
               PRIMEM["Greenwich", 0.0],
               UNIT["Degree", 0.0174532925199433]]
Description : Garoua
Authority   : EPSG
Version     : 6.5(10.2.0)
Deprecated  : no
Area-name   : Cameroon - Garoua area
Area-slat   : 8.92
Area-nlat   : 9.87
Area-llon   : 12.9
Area-rlon   : 14.19

WKID        : 4198
Latest-WKID : 4198
Macro       : PE_GCS_KOUSSERI
Name        : GCS_Kousseri
WKT         : GEOGCS["GCS_Kousseri",
               DATUM["D_Kousseri",
                SPHEROID["Clarke_1880_RGS", 6378249.145, 293.465]],
               PRIMEM["Greenwich", 0.0],
               UNIT["Degree", 0.0174532925199433]]
Description : Kousseri
Authority   : EPSG
Version     : 6.5(9.0.0)
Deprecated  : no
Area-name   : Cameroon - N'Djamena area
Area-slat   : 11.7
Area-nlat   : 12.77
Area-llon   : 14.17
Area-rlon   : 15.09

WKID        : 4199
Latest-WKID : 4199
Macro       : PE_GCS_EGYPT_1930
Name        : GCS_Egypt_1930
WKT         : GEOGCS["GCS_Egypt_1930",
               DATUM["D_Egypt_1930",
                SPHEROID["International_1924", 6378388.0, 297.0]],
               PRIMEM["Greenwich", 0.0],
               UNIT["Degree", 0.0174532925199433]]
Description : Egypt 1930
Authority   : EPSG
Version     : 6.5(9.0.0)
Deprecated  : no
Area-name   : Egypt - onshore
Area-slat   : 21.97
Area-nlat   : 31.68
Area-llon   : 24.7
Area-rlon   : 36.95

WKID        : 4200
Latest-WKID : 4200
Macro       : PE_GCS_PULKOVO_1995
Name        : GCS_Pulkovo_1995
WKT         : GEOGCS["GCS_Pulkovo_1995",
               DATUM["D_Pulkovo_1995",
                SPHEROID["Krasovsky_1940", 6378245.0, 298.3]],
               PRIMEM["Greenwich", 0.0],
               UNIT["Degree", 0.0174532925199433]]
Description : Pulkovo 1995
Authority   : EPSG
Version     : 9.0(3.0.1)
Deprecated  : no
Area-name   : Russia
Area-slat   : 39.87
Area-nlat   : 85.2
Area-llon   : 18.92
Area-rlon   : -168.97

WKID        : 4201
Latest-WKID : 4201
Macro       : PE_GCS_ADINDAN
Name        : GCS_Adindan
WKT         : GEOGCS["GCS_Adindan",
               DATUM["D_Adindan",
                SPHEROID["Clarke_1880_RGS", 6378249.145, 293.465]],
               PRIMEM["Greenwich", 0.0],
               UNIT["Degree", 0.0174532925199433]]
Description : Adindan
Authority   : EPSG
Version     : 8.7(3.0.1)
Deprecated  : no
Area-name   : Africa - Eritrea, Ethiopia, South Sudan and Sudan
Area-slat   : 3.4
Area-nlat   : 22.24
Area-llon   : 21.82
Area-rlon   : 47.99

WKID        : 4202
Latest-WKID : 4202
Macro       : PE_GCS_AGD_1966
Name        : GCS_Australian_1966
WKT         : GEOGCS["GCS_Australian_1966",
               DATUM["D_Australian_1966",
                SPHEROID["Australian", 6378160.0, 298.25]],
               PRIMEM["Greenwich", 0.0],
               UNIT["Degree", 0.0174532925199433]]
Description : Australian Geodetic Datum 1966
Authority   : EPSG
Version     : 9.8(3.0.1)
Deprecated  : no
Area-name   : Australasia - Australia and PNG - AGD66
Area-slat   : -47.2
Area-nlat   : -1.3
Area-llon   : 109.23
Area-rlon   : 163.2

WKID        : 4203
Latest-WKID : 4203
Macro       : PE_GCS_AGD_1984
Name        : GCS_Australian_1984
WKT         : GEOGCS["GCS_Australian_1984",
               DATUM["D_Australian_1984",
                SPHEROID["Australian", 6378160.0, 298.25]],
               PRIMEM["Greenwich", 0.0],
               UNIT["Degree", 0.0174532925199433]]
Description : Australian Geodetic Datum 1984
Authority   : EPSG
Version     : 9.8(3.0.1)
Deprecated  : no
Area-name   : Australia - AGD84
Area-slat   : -38.53
Area-nlat   : -9.37
Area-llon   : 109.23
Area-rlon   : 153.61

WKID        : 4204
Latest-WKID : 4204
Macro       : PE_GCS_AIN_EL_ABD_1970
Name        : GCS_Ain_el_Abd_1970
WKT         : GEOGCS["GCS_Ain_el_Abd_1970",
               DATUM["D_Ain_el_Abd_1970",
                SPHEROID["International_1924", 6378388.0, 297.0]],
               PRIMEM["Greenwich", 0.0],
               UNIT["Degree", 0.0174532925199433]]
Description : Ain el Abd 1970
Authority   : EPSG
Version     : 6.5(3.0.1)
Deprecated  : no
Area-name   : Asia - Middle East - Bahrain, Kuwait and Saudi Arabia
Area-slat   : 15.61
Area-nlat   : 32.16
Area-llon   : 34.51
Area-rlon   : 55.67

WKID        : 4205
Latest-WKID : 4205
Macro       : PE_GCS_AFGOOYE
Name        : GCS_Afgooye
WKT         : GEOGCS["GCS_Afgooye",
               DATUM["D_Afgooye",
                SPHEROID["Krasovsky_1940", 6378245.0, 298.3]],
               PRIMEM["Greenwich", 0.0],
               UNIT["Degree", 0.0174532925199433]]
Description : Afgooye
Authority   : EPSG
Version     : 7.9.3(3.0.1)
Deprecated  : no
Area-name   : Somalia - onshore
Area-slat   : -1.71
Area-nlat   : 12.03
Area-llon   : 40.99
Area-rlon   : 51.47

WKID        : 4206
Latest-WKID : 4206
Macro       : PE_GCS_AGADEZ
Name        : GCS_Agadez
WKT         : GEOGCS["GCS_Agadez",
               DATUM["D_Agadez",
                SPHEROID["Clarke_1880_IGN", 6378249.2, 293.4660212936265]],
               PRIMEM["Greenwich", 0.0],
               UNIT["Degree", 0.0174532925199433]]
Description : Agadez
Authority   : EPSG
Version     : 6.5(3.0.1)
Deprecated  : no
Area-name   : Niger
Area-slat   : 11.69
Area-nlat   : 23.53
Area-llon   : 0.16
Area-rlon   : 16.0

WKID        : 4207
Latest-WKID : 4207
Macro       : PE_GCS_LISBON
Name        : GCS_Lisbon
WKT         : GEOGCS["GCS_Lisbon",
               DATUM["D_Lisbon",
                SPHEROID["International_1924", 6378388.0, 297.0]],
               PRIMEM["Greenwich", 0.0],
               UNIT["Degree", 0.0174532925199433]]
Description : Lisbon
Authority   : EPSG
Version     : 6.5(3.0.1)
Deprecated  : no
Area-name   : Portugal - mainland - onshore
Area-slat   : 36.95
Area-nlat   : 42.16
Area-llon   : -9.56
Area-rlon   : -6.19

WKID        : 4208
Latest-WKID : 4208
Macro       : PE_GCS_ARATU
Name        : GCS_Aratu
WKT         : GEOGCS["GCS_Aratu",
               DATUM["D_Aratu",
                SPHEROID["International_1924", 6378388.0, 297.0]],
               PRIMEM["Greenwich", 0.0],
               UNIT["Degree", 0.0174532925199433]]
Description : Aratu
Authority   : EPSG
Version     : 6.5(3.0.1)
Deprecated  : no
Area-name   : Brazil - Aratu
Area-slat   : -35.71
Area-nlat   : 4.26
Area-llon   : -53.38
Area-rlon   : -26.0

WKID        : 4209
Latest-WKID : 4209
Macro       : PE_GCS_ARC_1950
Name        : GCS_Arc_1950
WKT         : GEOGCS["GCS_Arc_1950",
               DATUM["D_Arc_1950",
                SPHEROID["Clarke_1880_Arc", 6378249.145, 293.466307656]],
               PRIMEM["Greenwich", 0.0],
               UNIT["Degree", 0.0174532925199433]]
Description : Arc 1950
Authority   : EPSG
Version     : 6.5(3.0.1)
Deprecated  : no
Area-name   : Africa - Botswana, Malawi, Zambia, Zimbabwe
Area-slat   : -26.88
Area-nlat   : -8.19
Area-llon   : 19.99
Area-rlon   : 35.93

WKID        : 4210
Latest-WKID : 4210
Macro       : PE_GCS_ARC_1960
Name        : GCS_Arc_1960
WKT         : GEOGCS["GCS_Arc_1960",
               DATUM["D_Arc_1960",
                SPHEROID["Clarke_1880_RGS", 6378249.145, 293.465]],
               PRIMEM["Greenwich", 0.0],
               UNIT["Degree", 0.0174532925199433]]
Description : Arc 1960
Authority   : EPSG
Version     : 6.5(3.0.1)
Deprecated  : no
Area-name   : Africa - Burundi, Kenya, Rwanda, Tanzania and Uganda
Area-slat   : -11.75
Area-nlat   : 4.63
Area-llon   : 28.85
Area-rlon   : 41.91

WKID        : 4211
Latest-WKID : 4211
Macro       : PE_GCS_BATAVIA
Name        : GCS_Batavia
WKT         : GEOGCS["GCS_Batavia",
               DATUM["D_Batavia",
                SPHEROID["Bessel_1841", 6377397.155, 299.1528128]],
               PRIMEM["Greenwich", 0.0],
               UNIT["Degree", 0.0174532925199433]]
Description : Batavia
Authority   : EPSG
Version     : 7.4.6(3.0.1)
Deprecated  : no
Area-name   : Indonesia - Java and Java Sea
Area-slat   : -8.91
Area-nlat   : -4.07
Area-llon   : 105.06
Area-rlon   : 117.01

WKID        : 4212
Latest-WKID : 4212
Macro       : PE_GCS_BARBADOS_1938
Name        : GCS_Barbados_1938
WKT         : GEOGCS["GCS_Barbados_1938",
               DATUM["D_Barbados_1938",
                SPHEROID["Clarke_1880_RGS", 6378249.145, 293.465]],
               PRIMEM["Greenwich", 0.0],
               UNIT["Degree", 0.0174532925199433]]
Description : Barbados 1938
Authority   : EPSG
Version     : 7.8(3.0.1)
Deprecated  : no
Area-name   : Barbados - onshore
Area-slat   : 13.0
Area-nlat   : 13.39
Area-llon   : -59.71
Area-rlon   : -59.37

WKID        : 4213
Latest-WKID : 4213
Macro       : PE_GCS_BEDUARAM
Name        : GCS_Beduaram
WKT         : GEOGCS["GCS_Beduaram",
               DATUM["D_Beduaram",
                SPHEROID["Clarke_1880_IGN", 6378249.2, 293.4660212936265]],
               PRIMEM["Greenwich", 0.0],
               UNIT["Degree", 0.0174532925199433]]
Description : Beduaram
Authority   : EPSG
Version     : 6.5(3.0.1)
Deprecated  : no
Area-name   : Niger - southeast
Area-slat   : 12.8
Area-nlat   : 16.7
Area-llon   : 7.81
Area-rlon   : 14.9

WKID        : 4214
Latest-WKID : 4214
Macro       : PE_GCS_BEIJING_1954
Name        : GCS_Beijing_1954
WKT         : GEOGCS["GCS_Beijing_1954",
               DATUM["D_Beijing_1954",
                SPHEROID["Krasovsky_1940", 6378245.0, 298.3]],
               PRIMEM["Greenwich", 0.0],
               UNIT["Degree", 0.0174532925199433]]
Description : Beijing 1954
Authority   : EPSG
Version     : 9.3(3.0.1)
Deprecated  : no
Area-name   : China
Area-slat   : 16.7
Area-nlat   : 53.56
Area-llon   : 73.62
Area-rlon   : 134.77

WKID        : 4215
Latest-WKID : 4215
Macro       : PE_GCS_BELGE_1950
Name        : GCS_Belge_1950
WKT         : GEOGCS["GCS_Belge_1950",
               DATUM["D_Belge_1950",
                SPHEROID["International_1924", 6378388.0, 297.0]],
               PRIMEM["Greenwich", 0.0],
               UNIT["Degree", 0.0174532925199433]]
Description : Reseau National Belge 1950
Authority   : EPSG
Version     : 6.5(3.0.1)
Deprecated  : no
Area-name   : Belgium - onshore
Area-slat   : 49.5
Area-nlat   : 51.51
Area-llon   : 2.5
Area-rlon   : 6.4

WKID        : 4216
Latest-WKID : 4216
Macro       : PE_GCS_BERMUDA_1957
Name        : GCS_Bermuda_1957
WKT         : GEOGCS["GCS_Bermuda_1957",
               DATUM["D_Bermuda_1957",
                SPHEROID["Clarke_1866", 6378206.4, 294.9786982]],
               PRIMEM["Greenwich", 0.0],
               UNIT["Degree", 0.0174532925199433]]
Description : Bermuda 1957
Authority   : EPSG
Version     : 7.6.4(3.0.1)
Deprecated  : no
Area-name   : Bermuda - onshore
Area-slat   : 32.21
Area-nlat   : 32.43
Area-llon   : -64.89
Area-rlon   : -64.61

WKID        : 4218
Latest-WKID : 4218
Macro       : PE_GCS_BOGOTA
Name        : GCS_Bogota
WKT         : GEOGCS["GCS_Bogota",
               DATUM["D_Bogota",
                SPHEROID["International_1924", 6378388.0, 297.0]],
               PRIMEM["Greenwich", 0.0],
               UNIT["Degree", 0.0174532925199433]]
Description : Bogota
Authority   : EPSG
Version     : 7.4.6(3.0.1)
Deprecated  : no
Area-name   : Colombia - mainland and offshore Caribbean
Area-slat   : -4.23
Area-nlat   : 13.68
Area-llon   : -79.1
Area-rlon   : -66.87

WKID        : 4219
Latest-WKID : 4219
Macro       : PE_GCS_BUKIT_RIMPAH
Name        : GCS_Bukit_Rimpah
WKT         : GEOGCS["GCS_Bukit_Rimpah",
               DATUM["D_Bukit_Rimpah",
                SPHEROID["Bessel_1841", 6377397.155, 299.1528128]],
               PRIMEM["Greenwich", 0.0],
               UNIT["Degree", 0.0174532925199433]]
Description : Bukit Rimpah
Authority   : EPSG
Version     : 6.5(3.0.1)
Deprecated  : no
Area-name   : Indonesia - Banga & Belitung Islands
Area-slat   : -3.3
Area-nlat   : -1.44
Area-llon   : 105.07
Area-rlon   : 108.35

WKID        : 4220
Latest-WKID : 4220
Macro       : PE_GCS_CAMACUPA
Name        : GCS_Camacupa
WKT         : GEOGCS["GCS_Camacupa",
               DATUM["D_Camacupa",
                SPHEROID["Clarke_1880_RGS", 6378249.145, 293.465]],
               PRIMEM["Greenwich", 0.0],
               UNIT["Degree", 0.0174532925199433]]
Description : Camacupa
Authority   : EPSG
Version     : 9.8(3.0.1)
Deprecated  : no
Area-name   : Angola - Angola proper
Area-slat   : -18.02
Area-nlat   : -5.82
Area-llon   : 8.2
Area-rlon   : 24.09

WKID        : 4221
Latest-WKID : 4221
Macro       : PE_GCS_CAMPO_INCHAUSPE
Name        : GCS_Campo_Inchauspe
WKT         : GEOGCS["GCS_Campo_Inchauspe",
               DATUM["D_Campo_Inchauspe",
                SPHEROID["International_1924", 6378388.0, 297.0]],
               PRIMEM["Greenwich", 0.0],
               UNIT["Degree", 0.0174532925199433]]
Description : Campo Inchauspe
Authority   : EPSG
Version     : 7.6.9(3.0.1)
Deprecated  : no
Area-name   : Argentina - mainland onshore and offshore TdF
Area-slat   : -54.93
Area-nlat   : -21.78
Area-llon   : -73.59
Area-rlon   : -53.65

WKID        : 4222
Latest-WKID : 4222
Macro       : PE_GCS_CAPE
Name        : GCS_Cape
WKT         : GEOGCS["GCS_Cape",
               DATUM["D_Cape",
                SPHEROID["Clarke_1880_Arc", 6378249.145, 293.466307656]],
               PRIMEM["Greenwich", 0.0],
               UNIT["Degree", 0.0174532925199433]]
Description : Cape
Authority   : EPSG
Version     : 6.5(3.0.1)
Deprecated  : no
Area-name   : Africa - Botswana, Eswatini, Lesotho and South Africa
Area-slat   : -34.88
Area-nlat   : -17.78
Area-llon   : 16.45
Area-rlon   : 32.95

WKID        : 4223
Latest-WKID : 4223
Macro       : PE_GCS_CARTHAGE
Name        : GCS_Carthage
WKT         : GEOGCS["GCS_Carthage",
               DATUM["D_Carthage",
                SPHEROID["Clarke_1880_IGN", 6378249.2, 293.4660212936265]],
               PRIMEM["Greenwich", 0.0],
               UNIT["Degree", 0.0174532925199433]]
Description : Carthage
Authority   : EPSG
Version     : 6.5(9.0.0)
Deprecated  : no
Area-name   : Tunisia
Area-slat   : 30.23
Area-nlat   : 38.41
Area-llon   : 7.49
Area-rlon   : 13.67

WKID        : 4224
Latest-WKID : 4224
Macro       : PE_GCS_CHUA
Name        : GCS_Chua
WKT         : GEOGCS["GCS_Chua",
               DATUM["D_Chua",
                SPHEROID["International_1924", 6378388.0, 297.0]],
               PRIMEM["Greenwich", 0.0],
               UNIT["Degree", 0.0174532925199433]]
Description : Chua
Authority   : EPSG
Version     : 7.1(3.0.1)
Deprecated  : no
Area-name   : South America - Brazil - south of 18~S and west of 54~W + DF; N
              Paraguay
Area-slat   : -31.91
Area-nlat   : -15.37
Area-llon   : -62.57
Area-rlon   : -47.1

WKID        : 4225
Latest-WKID : 4225
Macro       : PE_GCS_CORREGO_ALEGRE
Name        : GCS_Corrego_Alegre
WKT         : GEOGCS["GCS_Corrego_Alegre",
               DATUM["D_Corrego_Alegre",
                SPHEROID["International_1924", 6378388.0, 297.0]],
               PRIMEM["Greenwich", 0.0],
               UNIT["Degree", 0.0174532925199433]]
Description : Corrego Alegre
Authority   : EPSG
Version     : 7.8.3(3.0.1)
Deprecated  : no
Area-name   : Brazil - Corrego Alegre 1970-1972
Area-slat   : -33.78
Area-nlat   : -2.68
Area-llon   : -58.16
Area-rlon   : -34.74

WKID        : 4226
Latest-WKID : 4226
Macro       : PE_GCS_COTE_D_IVOIRE
Name        : GCS_Cote_d_Ivoire
WKT         : GEOGCS["GCS_Cote_d_Ivoire",
               DATUM["D_Cote_d_Ivoire",
                SPHEROID["Clarke_1880_IGN", 6378249.2, 293.4660212936265]],
               PRIMEM["Greenwich", 0.0],
               UNIT["Degree", 0.0174532925199433]]
Description : Cote d'Ivoire
Authority   : EPSG
Version     : 2.1(3.0.1)
Deprecated  : no
Area-name   : Cote d'Ivoire (Ivory Coast)
Area-slat   : 1.02
Area-nlat   : 10.74
Area-llon   : -8.61
Area-rlon   : -2.48

WKID        : 4227
Latest-WKID : 4227
Macro       : PE_GCS_DEIR_EZ_ZOR
Name        : GCS_Deir_ez_Zor
WKT         : GEOGCS["GCS_Deir_ez_Zor",
               DATUM["D_Deir_ez_Zor",
                SPHEROID["Clarke_1880_IGN", 6378249.2, 293.4660212936265]],
               PRIMEM["Greenwich", 0.0],
               UNIT["Degree", 0.0174532925199433]]
Description : Deir ez Zor
Authority   : EPSG
Version     : 6.5(3.0.1)
Deprecated  : no
Area-name   : Asia - Middle East - Lebanon and Syria onshore
Area-slat   : 32.31
Area-nlat   : 37.3
Area-llon   : 35.04
Area-rlon   : 42.38

WKID        : 4228
Latest-WKID : 4228
Macro       : PE_GCS_DOUALA
Name        : GCS_Douala
WKT         : GEOGCS["GCS_Douala",
               DATUM["D_Douala",
                SPHEROID["Clarke_1880_IGN", 6378249.2, 293.4660212936265]],
               PRIMEM["Greenwich", 0.0],
               UNIT["Degree", 0.0174532925199433]]
Description : Douala
Authority   : EPSG
Version     : 2.1(3.0.1)
Deprecated  : no
Area-name   : Cameroon
Area-slat   : 1.65
Area-nlat   : 13.09
Area-llon   : 8.32
Area-rlon   : 16.21

WKID        : 4229
Latest-WKID : 4229
Macro       : PE_GCS_EGYPT_1907
Name        : GCS_Egypt_1907
WKT         : GEOGCS["GCS_Egypt_1907",
               DATUM["D_Egypt_1907",
                SPHEROID["Helmert_1906", 6378200.0, 298.3]],
               PRIMEM["Greenwich", 0.0],
               UNIT["Degree", 0.0174532925199433]]
Description : Egypt 1907
Authority   : EPSG
Version     : 6.5(3.0.1)
Deprecated  : no
Area-name   : Egypt
Area-slat   : 21.89
Area-nlat   : 33.82
Area-llon   : 24.7
Area-rlon   : 37.91

WKID        : 4230
Latest-WKID : 4230
Macro       : PE_GCS_ED_1950
Name        : GCS_European_1950
WKT         : GEOGCS["GCS_European_1950",
               DATUM["D_European_1950",
                SPHEROID["International_1924", 6378388.0, 297.0]],
               PRIMEM["Greenwich", 0.0],
               UNIT["Degree", 0.0174532925199433]]
Description : European Datum 1950
Authority   : EPSG
Version     : 6.6(3.0.1)
Deprecated  : no
Area-name   : Europe - ED50 by country
Area-slat   : 25.71
Area-nlat   : 84.17
Area-llon   : -16.1
Area-rlon   : 48.61

WKID        : 4231
Latest-WKID : 4231
Macro       : PE_GCS_ED_1987
Name        : GCS_European_1987
WKT         : GEOGCS["GCS_European_1987",
               DATUM["D_European_1987",
                SPHEROID["International_1924", 6378388.0, 297.0]],
               PRIMEM["Greenwich", 0.0],
               UNIT["Degree", 0.0174532925199433]]
Description : European Datum 1987
Authority   : EPSG
Version     : 6.5(3.0.1)
Deprecated  : no
Area-name   : Europe - west
Area-slat   : 34.88
Area-nlat   : 84.17
Area-llon   : -10.56
Area-rlon   : 39.65

WKID        : 4232
Latest-WKID : 4232
Macro       : PE_GCS_FAHUD
Name        : GCS_Fahud
WKT         : GEOGCS["GCS_Fahud",
               DATUM["D_Fahud",
                SPHEROID["Clarke_1880_RGS", 6378249.145, 293.465]],
               PRIMEM["Greenwich", 0.0],
               UNIT["Degree", 0.0174532925199433]]
Description : Fahud
Authority   : EPSG
Version     : 7.9.5(3.0.1)
Deprecated  : no
Area-name   : Oman - mainland
Area-slat   : 16.59
Area-nlat   : 26.42
Area-llon   : 51.99
Area-rlon   : 59.91

WKID        : 4233
Latest-WKID : 4233
Macro       : PE_GCS_GANDAJIKA_1970
Name        : GCS_Gandajika_1970
WKT         : GEOGCS["GCS_Gandajika_1970",
               DATUM["D_Gandajika_1970",
                SPHEROID["International_1924", 6378388.0, 297.0]],
               PRIMEM["Greenwich", 0.0],
               UNIT["Degree", 0.0174532925199433]]
Description : Gandajika 1970 (DEPRECATED - use PE_GCS_GAN_1970)
Authority   : EPSG
Version     : 6.5(3.0.1)
Deprecated  : yes
Area-name   : Maldives
Area-slat   : -3.47
Area-nlat   : 8.1
Area-llon   : 69.29
Area-rlon   : 77.08

WKID        : 4234
Latest-WKID : 4197
Macro       : PE_GCS_GAROUA
Name        : GCS_Garoua
WKT         : GEOGCS["GCS_Garoua",
               DATUM["D_Garoua",
                SPHEROID["Clarke_1880_RGS", 6378249.145, 293.465]],
               PRIMEM["Greenwich", 0.0],
               UNIT["Degree", 0.0174532925199433]]
Description : Garoua
Authority   : EPSG
Version     : 2.1(4.0.0)
Deprecated  : yes
Area-name   : Cameroon - Garoua area
Area-slat   : 8.92
Area-nlat   : 9.87
Area-llon   : 12.9
Area-rlon   : 14.19

WKID        : 4235
Latest-WKID : 4235
Macro       : PE_GCS_GUYANE_FRANCAISE
Name        : GCS_Guyane_Francaise
WKT         : GEOGCS["GCS_Guyane_Francaise",
               DATUM["D_Guyane_Francaise",
                SPHEROID["International_1924", 6378388.0, 297.0]],
               PRIMEM["Greenwich", 0.0],
               UNIT["Degree", 0.0174532925199433]]
Description : Guyane Francaise
Authority   : EPSG
Version     : 2.1(3.0.1)
Deprecated  : no
Area-name   : French Guiana
Area-slat   : 2.11
Area-nlat   : 8.88
Area-llon   : -54.6
Area-rlon   : -49.46

WKID        : 4236
Latest-WKID : 4236
Macro       : PE_GCS_HU_TZU_SHAN
Name        : GCS_Hu_Tzu_Shan
WKT         : GEOGCS["GCS_Hu_Tzu_Shan",
               DATUM["D_Hu_Tzu_Shan",
                SPHEROID["International_1924", 6378388.0, 297.0]],
               PRIMEM["Greenwich", 0.0],
               UNIT["Degree", 0.0174532925199433]]
Description : Hu Tzu Shan
Authority   : EPSG
Version     : 6.18(3.0.1)
Deprecated  : no
Area-name   : Taiwan - onshore - mainland and Penghu
Area-slat   : 21.87
Area-nlat   : 25.34
Area-llon   : 119.25
Area-rlon   : 122.06

WKID        : 4237
Latest-WKID : 4237
Macro       : PE_GCS_HUNGARIAN_1972
Name        : GCS_Hungarian_1972
WKT         : GEOGCS["GCS_Hungarian_1972",
               DATUM["D_Hungarian_1972",
                SPHEROID["GRS_1967", 6378160.0, 298.247167427]],
               PRIMEM["Greenwich", 0.0],
               UNIT["Degree", 0.0174532925199433]]
Description : Hungarian Datum 1972
Authority   : EPSG
Version     : 6.17.1(3.0.1)
Deprecated  : no
Area-name   : Hungary
Area-slat   : 45.74
Area-nlat   : 48.58
Area-llon   : 16.11
Area-rlon   : 22.9

WKID        : 4238
Latest-WKID : 4238
Macro       : PE_GCS_INDONESIAN_1974
Name        : GCS_Indonesian_1974
WKT         : GEOGCS["GCS_Indonesian_1974",
               DATUM["D_Indonesian_1974",
                SPHEROID["Indonesian", 6378160.0, 298.247]],
               PRIMEM["Greenwich", 0.0],
               UNIT["Degree", 0.0174532925199433]]
Description : Indonesian Datum 1974
Authority   : EPSG
Version     : 7.9.8(3.0.1)
Deprecated  : no
Area-name   : Indonesia - onshore
Area-slat   : -10.98
Area-nlat   : 5.97
Area-llon   : 95.16
Area-rlon   : 141.01

WKID        : 4239
Latest-WKID : 4239
Macro       : PE_GCS_INDIAN_1954
Name        : GCS_Indian_1954
WKT         : GEOGCS["GCS_Indian_1954",
               DATUM["D_Indian_1954",
                SPHEROID["Everest_Adjustment_1937", 6377276.345, 300.8017]],
               PRIMEM["Greenwich", 0.0],
               UNIT["Degree", 0.0174532925199433]]
Description : Indian 1954
Authority   : EPSG
Version     : 6.5(3.0.1)
Deprecated  : no
Area-name   : Asia - Myanmar and Thailand onshore
Area-slat   : 5.63
Area-nlat   : 28.55
Area-llon   : 92.2
Area-rlon   : 105.64

WKID        : 4240
Latest-WKID : 4240
Macro       : PE_GCS_INDIAN_1975
Name        : GCS_Indian_1975
WKT         : GEOGCS["GCS_Indian_1975",
               DATUM["D_Indian_1975",
                SPHEROID["Everest_Adjustment_1937", 6377276.345, 300.8017]],
               PRIMEM["Greenwich", 0.0],
               UNIT["Degree", 0.0174532925199433]]
Description : Indian 1975
Authority   : EPSG
Version     : 7.6.4(3.0.1)
Deprecated  : no
Area-name   : Thailand - onshore and Gulf of Thailand
Area-slat   : 5.63
Area-nlat   : 20.46
Area-llon   : 97.34
Area-rlon   : 105.64

WKID        : 4241
Latest-WKID : 4241
Macro       : PE_GCS_JAMAICA_1875
Name        : GCS_Jamaica_1875
WKT         : GEOGCS["GCS_Jamaica_1875",
               DATUM["D_Jamaica_1875",
                SPHEROID["Clarke_1880", 6378249.144808011, 293.4663076556253]],
               PRIMEM["Greenwich", 0.0],
               UNIT["Degree", 0.0174532925199433]]
Description : Jamaica 1875
Authority   : EPSG
Version     : 6.6(3.0.1)
Deprecated  : no
Area-name   : Jamaica - onshore
Area-slat   : 17.64
Area-nlat   : 18.58
Area-llon   : -78.43
Area-rlon   : -76.17

WKID        : 4242
Latest-WKID : 4242
Macro       : PE_GCS_JAMAICA_1969
Name        : GCS_Jamaica_1969
WKT         : GEOGCS["GCS_Jamaica_1969",
               DATUM["D_Jamaica_1969",
                SPHEROID["Clarke_1866", 6378206.4, 294.9786982]],
               PRIMEM["Greenwich", 0.0],
               UNIT["Degree", 0.0174532925199433]]
Description : Jamaica 1969
Authority   : EPSG
Version     : 6.12(3.0.1)
Deprecated  : no
Area-name   : Jamaica - onshore
Area-slat   : 17.64
Area-nlat   : 18.58
Area-llon   : -78.43
Area-rlon   : -76.17

WKID        : 4243
Latest-WKID : 4243
Macro       : PE_GCS_KALIANPUR_1880
Name        : GCS_Kalianpur_1880
WKT         : GEOGCS["GCS_Kalianpur_1880",
               DATUM["D_Kalianpur_1880",
                SPHEROID["Everest_1830", 6377299.36, 300.8017]],
               PRIMEM["Greenwich", 0.0],
               UNIT["Degree", 0.0174532925199433]]
Description : Kalianpur 1880
Authority   : EPSG
Version     : 6.5(3.0.1)
Deprecated  : no
Area-name   : Asia - Bangladesh; India; Myanmar; Pakistan - onshore
Area-slat   : 8.02
Area-nlat   : 37.07
Area-llon   : 60.86
Area-rlon   : 101.17

WKID        : 4244
Latest-WKID : 4244
Macro       : PE_GCS_KANDAWALA
Name        : GCS_Kandawala
WKT         : GEOGCS["GCS_Kandawala",
               DATUM["D_Kandawala",
                SPHEROID["Everest_Adjustment_1937", 6377276.345, 300.8017]],
               PRIMEM["Greenwich", 0.0],
               UNIT["Degree", 0.0174532925199433]]
Description : Kandawala
Authority   : EPSG
Version     : 7.5.9(3.0.1)
Deprecated  : no
Area-name   : Sri Lanka - onshore
Area-slat   : 5.86
Area-nlat   : 9.88
Area-llon   : 79.64
Area-rlon   : 81.95

WKID        : 4245
Latest-WKID : 4245
Macro       : PE_GCS_KERTAU
Name        : GCS_Kertau
WKT         : GEOGCS["GCS_Kertau",
               DATUM["D_Kertau",
                SPHEROID["Everest_1830_Modified", 6377304.063, 300.8017]],
               PRIMEM["Greenwich", 0.0],
               UNIT["Degree", 0.0174532925199433]]
Description : Kertau
Authority   : EPSG
Version     : 8.6(3.0.1)
Deprecated  : no
Area-name   : Asia - Malaysia (west including SCS) and Singapore
Area-slat   : 1.13
Area-nlat   : 7.81
Area-llon   : 99.59
Area-rlon   : 105.82

WKID        : 4246
Latest-WKID : 4246
Macro       : PE_GCS_KOC
Name        : GCS_Kuwait_Oil_Company
WKT         : GEOGCS["GCS_Kuwait_Oil_Company",
               DATUM["D_Kuwait_Oil_Company",
                SPHEROID["Clarke_1880_RGS", 6378249.145, 293.465]],
               PRIMEM["Greenwich", 0.0],
               UNIT["Degree", 0.0174532925199433]]
Description : Kuwait Oil Company
Authority   : EPSG
Version     : 6.5(3.0.1)
Deprecated  : no
Area-name   : Kuwait - onshore
Area-slat   : 28.53
Area-nlat   : 30.09
Area-llon   : 46.54
Area-rlon   : 48.48

WKID        : 4247
Latest-WKID : 4247
Macro       : PE_GCS_LA_CANOA
Name        : GCS_La_Canoa
WKT         : GEOGCS["GCS_La_Canoa",
               DATUM["D_La_Canoa",
                SPHEROID["International_1924", 6378388.0, 297.0]],
               PRIMEM["Greenwich", 0.0],
               UNIT["Degree", 0.0174532925199433]]
Description : La Canoa
Authority   : EPSG
Version     : 7.6.4(3.0.1)
Deprecated  : no
Area-name   : Venezuela - onshore
Area-slat   : 0.64
Area-nlat   : 12.25
Area-llon   : -73.38
Area-rlon   : -59.8

WKID        : 4248
Latest-WKID : 4248
Macro       : PE_GCS_PSAD_1956
Name        : GCS_Provisional_S_American_1956
WKT         : GEOGCS["GCS_Provisional_S_American_1956",
               DATUM["D_Provisional_S_American_1956",
                SPHEROID["International_1924", 6378388.0, 297.0]],
               PRIMEM["Greenwich", 0.0],
               UNIT["Degree", 0.0174532925199433]]
Description : Provisional South Amer. Datum 1956
Authority   : EPSG
Version     : 7.6.4(3.0.1)
Deprecated  : no
Area-name   : South America - PSAD56 by country
Area-slat   : -43.5
Area-nlat   : 12.68
Area-llon   : -81.41
Area-rlon   : -47.99

WKID        : 4249
Latest-WKID : 4249
Macro       : PE_GCS_LAKE
Name        : GCS_Lake
WKT         : GEOGCS["GCS_Lake",
               DATUM["D_Lake",
                SPHEROID["International_1924", 6378388.0, 297.0]],
               PRIMEM["Greenwich", 0.0],
               UNIT["Degree", 0.0174532925199433]]
Description : Lake
Authority   : EPSG
Version     : 6.5(3.0.1)
Deprecated  : no
Area-name   : Venezuela - Lake Maracaibo
Area-slat   : 8.72
Area-nlat   : 11.04
Area-llon   : -72.4
Area-rlon   : -70.78

WKID        : 4250
Latest-WKID : 4250
Macro       : PE_GCS_LEIGON
Name        : GCS_Leigon
WKT         : GEOGCS["GCS_Leigon",
               DATUM["D_Leigon",
                SPHEROID["Clarke_1880_RGS", 6378249.145, 293.465]],
               PRIMEM["Greenwich", 0.0],
               UNIT["Degree", 0.0174532925199433]]
Description : Leigon
Authority   : EPSG
Version     : 6.5(3.0.1)
Deprecated  : no
Area-name   : Ghana
Area-slat   : 1.4
Area-nlat   : 11.16
Area-llon   : -3.79
Area-rlon   : 2.1

WKID        : 4251
Latest-WKID : 4251
Macro       : PE_GCS_LIBERIA_1964
Name        : GCS_Liberia_1964
WKT         : GEOGCS["GCS_Liberia_1964",
               DATUM["D_Liberia_1964",
                SPHEROID["Clarke_1880_RGS", 6378249.145, 293.465]],
               PRIMEM["Greenwich", 0.0],
               UNIT["Degree", 0.0174532925199433]]
Description : Liberia 1964
Authority   : EPSG
Version     : 6.5(3.0.1)
Deprecated  : no
Area-name   : Liberia - onshore
Area-slat   : 4.29
Area-nlat   : 8.52
Area-llon   : -11.52
Area-rlon   : -7.36

WKID        : 4252
Latest-WKID : 4252
Macro       : PE_GCS_LOME
Name        : GCS_Lome
WKT         : GEOGCS["GCS_Lome",
               DATUM["D_Lome",
                SPHEROID["Clarke_1880_IGN", 6378249.2, 293.4660212936265]],
               PRIMEM["Greenwich", 0.0],
               UNIT["Degree", 0.0174532925199433]]
Description : Lome
Authority   : EPSG
Version     : 6.5(3.0.1)
Deprecated  : no
Area-name   : Togo
Area-slat   : 2.91
Area-nlat   : 11.14
Area-llon   : -0.15
Area-rlon   : 2.42

WKID        : 4253
Latest-WKID : 4253
Macro       : PE_GCS_LUZON_1911
Name        : GCS_Luzon_1911
WKT         : GEOGCS["GCS_Luzon_1911",
               DATUM["D_Luzon_1911",
                SPHEROID["Clarke_1866", 6378206.4, 294.9786982]],
               PRIMEM["Greenwich", 0.0],
               UNIT["Degree", 0.0174532925199433]]
Description : Luzon 1911
Authority   : EPSG
Version     : 7.9.8(3.0.1)
